stop_id,stop_name,stop_code,stop_lat,stop_lon,stop_desc
9705,BRIGADIER LOPEZ y MORENO,9705,-32.932456,-60.647383,OCHAVA NE
6546,JUNIN y CANNING,6546,-32.926656,-60.675008,OCHAVA SO
6303,ESPAÑA y RIOJA,6303,-32.945996,-60.646864,OCHAVA NO
5727,LIMITE MUNICIPIO y IRURTIA,5727,-32.967226,-60.733287,OCHAVA NO
4926,CASILDA y CANGALLO,4926,-32.928078,-60.677536,OCHAVA NE
5146,GENOVA y GALLINI,5146,-32.915383,-60.689308,OCHAVA SO
7373,RUTA NAC. 9 (Funes) y AV. ARGENTINA (Funes),7373,-32.914690409,-60.855663004,OCHAVA SO
9728,GENOVA y CORAZZI,9728,-32.915256,-60.69087,OCHAVA NE
3663,Ab. GRANDOLI y J. M. GUTIERREZ,3663,-32.993303,-60.628802,OCHAVA NO
9366,SILVESTRE BEGNIS (Baigorria) y MAIPO (Baigorria),9366,-32.850880231,-60.719563907,OCHAVA NE
7673,MENDOZA y FRAGA,7673,-32.940295,-60.710314,OCHAVA SO
3380,ESPAÑA y CEIBO,3380,-33.013657,-60.65683,OCHAVA SE
6449,FRANCIA y OCAMPO,6449,-32.961667,-60.67041,OCHAVA SE
2496,COPACABANA y PUNTA DEL INDIO,2496,-33.028257,-60.687143,OCHAVA NE
7185,CERESETO y PIEDRAS,7185,-33.007615,-60.673762,OCHAVA NO
4340,PELLEGRINI y P. L. FUNES,4340,-32.948427,-60.700954,OCHAVA SO
5651,E. DE LUCA y CORRIENTES,5651,-32.995145,-60.653661,OCHAVA SO
6452,SERRANO y S. DE BUSTAMANTE,6452,-33.001369,-60.631895,OCHAVA NO
3042,SPEGAZZINI y BRANDSEN,3042,-32.880743,-60.701475,OCHAVA NO
3123,FRANCIA y PTE. QUINTANA,3123,-32.977719,-60.674466,OCHAVA SE
6898,AVELLANEDA y J. J. PASO,6898,-32.919032,-60.67429,OCHAVA NO
7480,FILIPPINI (VGG) y LEVALLE (VGG),7480,-33.026923,-60.637096,OCHAVA SE
3449,ANCHORIS y GODOY CRUZ,3449,-32.891435,-60.701729,OCHAVA NO
1104,SANTA FE y FRANCIA,1104,-32.940129,-60.664987,OCHAVA NE
1021,SAN MARTIN y DR. F. RIVA,1021,-32.984171,-60.645158,OCHAVA SE
7046,MEJICO y GORRITI,7046,-32.924405,-60.719224,OCHAVA NO
3200,NAVARRO y DONADO,3200,-32.931754,-60.727204,OCHAVA NE
1622,RIOBAMBA y ESMERALDA,1622,-32.9659,-60.625718,OCHAVA N
7199,LAPRIDA y AYOLAS,7199,-32.977386,-60.641958,OCHAVA NO
2833,MITRE y BIEDMA,2833,-32.981217,-60.64826,OCHAVA SE
4499,SAN LUIS y CASTELLANOS,4499,-32.942487,-60.675809,OCHAVA SO
8053,ENTRE RIOS y H. DE LA QUINTANA,8053,-33.000947,-60.651971,OCHAVA NO
9776,JOSE DE CALASANZ y SUINDA,9776,-32.940745,-60.759785,OCHAVA NE
7943,MITRE y SAN LORENZO,7943,-32.943932,-60.638935,OCHAVA SE
9668,SANTA FE y DORREGO,9668,-32.943033,-60.648798,OCHAVA NE
2559,OCAMPO y SOLIS,2559,-32.957848,-60.702759,OCHAVA SO
7771,ENTRE RIOS y 27 DE FEBRERO,7771,-32.96683,-60.646302,OCHAVA NO
6559,OCAMPO y CAMPBELL,6559,-32.957970628,-60.707339235,OCHAVA SO
2587,JOSE DE CALASANZ y MANUEL UGARTE,2587,-32.940877,-60.755305,OCHAVA SO
4800,AMENABAR y ITALIA,4800,-32.97051,-60.654475,OCHAVA SO
9881,MITRE y ANDRADE,9881,-32.995965,-60.650523,OCHAVA SE
9731,9 DE JULIO y SANTIAGO,9731,-32.950704,-60.657991,OCHAVA SO
1813,PTE. PERON y SAN NICOLAS,1813,-32.956927,-60.67678,OCHAVA SO
7238,URQUIZA y ENTRE RIOS,7238,-32.942418,-60.640023,OCHAVA NE
8049,EVA PERON (Baigorria) y SAN LORENZO (Baigorria),8049,-32.858077854,-60.708488124,OCHAVA NE
9305,IRIARTE y GALICIA,9305,-32.874304,-60.691049,OCHAVA SE
6256,MITRE y PELLEGRINI,6256,-32.957208,-60.642219,OCHAVA SE
9957,MENDOZA y MARTIN RODRIGUEZ,9957,-32.947932,-60.660131,OCHAVA SO
2562,BOUCHARD y POLLEDO,2562,-32.89017,-60.720486,OCHAVA SO
7032,OVIDIO LAGOS y RIOBAMBA,7032,-32.958761,-60.665696,OCHAVA NO
3020,JUAN PABLO II y SUPERI,3020,-32.896963,-60.72048,OCHAVA E
2982,BIEDMA y LAVALLE,2982,-32.974332,-60.686695,OCHAVA SO
5060,JUJUY y ESPAÑA,5060,-32.936716,-60.644367,OCHAVA NE
5300,FILIPPINI (VGG) y LIBERTAD (VGG),5300,-33.021309,-60.63701,OCHAVA NO
6061,OMAR CARRASCO y ITUZAINGO,6061,-32.956402,-60.666331,OCHAVA SE
8712,ANDRADE y PUEYRREDON,8712,-32.996433,-60.6693,OCHAVA NE
6205,PTE. PERON y SAN NICOLAS,6205,-32.956602,-60.676329,OCHAVA NE
6865,MENDOZA (17 DE OCTUBRE) (VGG) y EDISON,6865,-33.015792035,-60.609145172,OCHAVA SE
1277,PELLEGRINI y IRIONDO,1277,-32.951476,-60.672198,OCHAVA NE
7484,BUENOS AIRES y PTE. QUINTANA,7484,-32.983587,-60.641707,OCHAVA SE
9069,URQUIZA y LIMA,9069,-32.934816,-60.682204,OCHAVA NE
9430,PARAGUAY y RIOJA,9430,-32.946494,-60.644074,OCHAVA NO
8358,NANSEN y MAZZINI,8358,-32.909063,-60.682978,OCHAVA NE
5962,ITALIA y SEGUI,5962,-32.977509,-60.656032,OCHAVA SE
3254,C. ALDAO y VIAMONTE,3254,-32.956507,-60.695253,OCHAVA SE
3297,SEGUI y AVELLANEDA,3297,-32.971827336,-60.687534777,OCHAVA SO
2305,PALESTINA y BLOMBERG,2305,-32.886611,-60.718602,OCHAVA S
2618,ROUILLON y DR. MARADONA,2618,-32.979696,-60.70057,OCHAVA SE
4714,3 DE FEBRERO y L. N. ALEM,4714,-32.954377,-60.629811,OCHAVA NE
4219,J D PERON (VGG) y SANTIAGO DEL ESTERO (VGG),4219,-33.01073,-60.614917,OCHAVA SE
5929,SCHWEITZER y ALVAREZ CONDARCO,5929,-32.914556,-60.755745,OCHAVA SO
8176,SAN MARTIN y B. JUAREZ,8176,-32.992692,-60.647286,OCHAVA NO
7691,3 DE FEBRERO y AVELLANEDA,7691,-32.945391,-60.680519,OCHAVA NE
4826,3 DE FEBRERO y CAFFERATA,4826,-32.946842,-60.672449,OCHAVA NE
2104,SORRENTO y IGNACIO WARNES,2104,-32.907062,-60.690035,OCHAVA NE
3227,27 DE FEBRERO y PERU,3227,-32.959471,-60.710708,OCHAVA SO
6738,FILIPPINI (VGG) y LEVALLE (VGG),6738,-33.02687,-60.637172,OCHAVA NO
9457,SCHWEITZER y MEJICO,9457,-32.913221653,-60.719481679,OCHAVA NE
3282,3 DE FEBRERO y VALPARAISO,3282,-32.944910182,-60.683288017,OCHAVA NE
6152,HERNANDEZ (Funes) y RODRIGUEZ (Funes),6152,-32.928608,-60.84299,OCHAVA SE
7820,VELEZ SARSFIELD y MAR DEL PLATA,7820,-32.924952,-60.681909,OCHAVA NE
3578,OVIDIO LAGOS y NUEVA C. A SOLDINI,3578,-33.021036,-60.679623,OCHAVA E
4125,VERA MUJICA y CORDOBA,4125,-32.941377,-60.666804,OCHAVA SE
5288,DR. F. RIVA y SAN NICOLAS,5288,-32.977599,-60.681833,OCHAVA SO
5449,G. BROWN y OROÑO,5449,-32.934444,-60.651138,OCHAVA SO
9955,CERRITO y C. ALDAO,9955,-32.952958,-60.695582,OCHAVA SO
4782,CORRIENTES y CERRITO,4782,-32.961304,-60.646187,OCHAVA SE
8631,SAN JUAN y GUTENBERG,8631,-32.941281,-60.688109,OCHAVA NE
2716,OVIDIO LAGOS y GARIBALDI,2716,-32.981951,-60.670915,OCHAVA SE
9544,DONADO y FRENCH,9544,-32.921881,-60.727598,OCHAVA SE
7204,MORROW y CALLE 13120,7204,-32.875067,-60.735564,OCHAVA SE
3407,AVELLANEDA y AURORA,3407,-32.99989,-60.688719,OCHAVA SE
3074,GAMBARTES y TABARE,3074,-32.888038,-60.710428,OCHAVA SE
1783,SARRATEA y ARGENTINO,1783,-32.924632,-60.741056,OCHAVA SE
7810,BUENOS AIRES y GALVEZ,7810,-32.969816,-60.638239,OCHAVA SE
6744,MENDOZA y BUENOS AIRES,6744,-32.952509,-60.634065,OCHAVA SO
8091,BALCARCE y GUEMES,8091,-32.933413,-60.64936,OCHAVA NO
7163,MENDOZA y SANTIAGO,7163,-32.94842,-60.657414,OCHAVA SO
7589,EVA PERON y MANUEL ACEVEDO,7589,-32.926533,-60.749722,OCHAVA NE
4986,3 DE FEBRERO y S. BAYO,4986,-32.944396,-60.686047,OCHAVA NE
9176,J. M. GUTIERREZ y A. ALICE,9176,-32.993394,-60.627015,OCHAVA SO
8412,9 DE JULIO y LAVALLE,8412,-32.946798,-60.679742,OCHAVA SO
9340,J D PERON (VGG) y GRAL. LOPEZ (VGG),9340,-33.016835,-60.616452,OCHAVA NO
3437,SAN MARTIN y CABILDO,3437,-33.007432,-60.650176,OCHAVA SE
7209,D. CRESPO y GALVEZ,7209,-32.963265,-60.673946,OCHAVA NO
7848,PARAGUAY y RIOBAMBA,7848,-32.961933,-60.647971,OCHAVA NO
7576,CORDOBA y OVIDIO LAGOS,7576,-32.942313,-60.661553,OCHAVA SO
8981,3 DE FEBRERO y PTE. ROCA,8981,-32.95147,-60.64662,OCHAVA NE
8924,EVA PERON (Baigorria) y SUIPACHA (Baigorria),8924,-32.858633633,-60.721956024,OCHAVA NE
8698,UGARTECHE y CASACUBERTA,8698,-32.929648,-60.759192,OCHAVA SE
2651,BUENOS AIRES y BATLLE Y ORDOÑEZ,2651,-33.008914,-60.644571,OCHAVA SE
2255,NTRA. SRA. ROSARIO y CONSTITUCION,2255,-33.001128,-60.686465,OCHAVA NE
2595,CERRITO y LIMA,2595,-32.953853,-60.687215,OCHAVA SO
5000,OROÑO y J. CANALS,5000,-32.986572,-60.664302,OCHAVA NO
8471,SERRANO y NTRA. SRA. ROSARIO,8471,-32.999243,-60.631986,OCHAVA NO
9739,CASILDA y IGUAZU,9739,-32.928305,-60.685663,OCHAVA NE
9574,S. DE BUSTAMANTE y CASTRO BARROS,9574,-33.001293,-60.629372,OCHAVA NE
7958,UGARTECHE y O HIGGINS,7958,-32.92684,-60.75946,OCHAVA NO
1206,SAN MARTIN y ARIJON,1206,-33.00293,-60.64949,OCHAVA NO
6165,AMENABAR y BALCARCE,6165,-32.96978,-60.658546,OCHAVA SO
9525,SAN MARTIN y GARIBALDI,9525,-32.986478,-60.645659,OCHAVA SE
6878,RONDEAU y GALICIA,6878,-32.875779,-60.697836,OCHAVA SE
8032,IRIONDO y OCAMPO,8032,-32.960922,-60.674575,OCHAVA SE
2293,J. J. PASO y BOLIVIA,2293,-32.920453,-60.714785,OCHAVA SO
5922,CASIANO CASAS y MILLER,5922,-32.901473,-60.70639,OCHAVA SO
5459,PTE. PERON (Funes) y ROSARIO (Funes),5459,-32.916452,-60.80704,OCHAVA SE
1896,EVA PERON y PROVINCIAS UNIDAS,1896,-32.932898,-60.712825,OCHAVA NE
9825,ARIJON y CARLOS M. ALVEAR,9825,-33.003431,-60.666155,OCHAVA NE
3987,FRANCIA y J. MARC,3987,-32.993351,-60.677937,OCHAVA SE
6686,PROVINCIAS UNIDAS y LA REPUBLICA,6686,-32.918513,-60.71387,OCHAVA NO
4887,TUCUMAN y SUIPACHA,4887,-32.937191,-60.663099,OCHAVA SO
5350,GENOVA y CORDIVIOLA,5350,-32.914813,-60.675256,OCHAVA NE
2113,PUEYRREDON y LAMADRID,2113,-32.997829,-60.66924,OCHAVA SE
4534,ROUILLON y URUGUAY,4534,-32.968246,-60.701319,OCHAVA NO
4388,DORREGO y URQUIZA,4388,-32.940889,-60.648413,OCHAVA NO
8246,CORRIENTES y DEAN FUNES,8246,-32.974966,-60.649627,OCHAVA SE
7006,Ab. GRANDOLI y SEGUI,7006,-32.982238,-60.628156,OCHAVA NO
1249,MENDOZA y COLOMBIA,1249,-32.94047,-60.716191,OCHAVA SO
5348,SAN MARTIN y JUAN PABLO II,5348,-33.015524,-60.652254,OCHAVA NO
3762,SOLIS y CASILDA,3762,-32.928801,-60.703964,OCHAVA NO
3128,NTRA. SRA. ROSARIO y EL MANGRULLO,3128,-32.99952,-60.615304,OCHAVA NE
9098,PTE. PERON y LINIERS,9098,-32.960861,-60.697657,OCHAVA NE
9122,AVELLANEDA y DR. CABALLERO,9122,-33.001793102,-60.688997608,OCHAVA SE
9999,CORRIENTES y R. ROSS,9999,-32.987596,-60.652818,OCHAVA SE
4254,HIPOCRATES y J. M. GUTIERREZ,4254,-32.993432,-60.63288,OCHAVA NO
9870,5 DE AGOSTO y GUARIA MORADA,9870,-33.017112,-60.658857,OCHAVA SO
9560,JORGE NEWBERY y M. GALVEZ,9560,-32.908762,-60.752534,OCHAVA NE
6647,D. CRESPO y H. DE LA QUINTANA,6647,-33.001754,-60.680704,OCHAVA NO
7621,Ab. GRANDOLI y CENTENO,7621,-32.988175,-60.628505,OCHAVA NO
9826,TARRAGONA y LA REPUBLICA,9826,-32.919241,-60.734927,OCHAVA SE
2278,PROVINCIAS UNIDAS y GORRITI,2278,-32.924252,-60.713475,OCHAVA NO
8488,ALVAREZ CONDARCO y LOS PODESTA,8488,-32.928369,-60.756877,OCHAVA SE
2620,OROÑO y J. CANALS,2620,-32.9868,-60.66398,OCHAVA SE
9910,EVA PERON (Baigorria) y BUENOS AIRES (Baigorria),9910,-32.858372795,-60.71043676,OCHAVA SO
2361,VERA MUJICA y URQUIZA,2361,-32.937908,-60.665928,OCHAVA SE
7148,AMENABAR y JUAN M. DE ROSAS,7148,-32.973476,-60.63788,OCHAVA SO
1370,CORDOBA y ALSINA,1370,-32.939632,-60.676509,OCHAVA SO
1560,MONTEVIDEO y BALCARCE,1560,-32.953732,-60.654476,OCHAVA SO
8856,RIOJA y AVELLANEDA,8856,-32.94018,-60.679202,OCHAVA NE
7862,OVIDIO LAGOS y ANDRADE,7862,-32.996763,-60.674406,OCHAVA SE
4656,JUNIN y DIAZ VELEZ,4656,-32.92689,-60.684711,OCHAVA SO
3932,PROVINCIAS UNIDAS y ITUZAINGO,3932,-32.952259,-60.711934,OCHAVA SE
1491,PELLEGRINI y OVIDIO LAGOS,1491,-32.953257,-60.664308,OCHAVA SO
4631,LAMADRID y PAVON,4631,-32.99672,-60.634385,OCHAVA SO
5936,EVA PERON (Baigorria) y SANTA FE (Baigorria),5936,-32.858262355,-60.712157963,OCHAVA NE
4326,FRANCIA y OCAMPO,4326,-32.96145,-60.670734,OCHAVA NO
4810,ZEBALLOS y L. N. ALEM,4810,-32.956898,-60.630437,OCHAVA NE
8728,ROUILLON y ORIGONE ,8728,-32.974141925,-60.701100165,OCHAVA NO
6664,CARLOS M. ALVEAR y 3 DE FEBRERO,6664,-32.949926,-60.656184,OCHAVA SE
2743,MITRE y GARIBALDI,2743,-32.985858,-60.649436,OCHAVA SE
8367,ITALIA y PELLEGRINI,8367,-32.955721,-60.650553,OCHAVA SE
3281,ROUILLON y A. RIVERO,3281,-32.974849,-60.700729,OCHAVA SE
6767,TEMPORELLI (VGG) y SAN LORENZO (VGG),6767,-33.036321,-60.644917,OCHAVA NE
6712,ALSINA y CORDOBA,6712,-32.939472,-60.676468,OCHAVA NO
1415,AVELLANEDA y TUELLA,1415,-32.914917,-60.672873,OCHAVA SE
7275,R. RIVAROLA y BENITEZ,7275,-32.966161,-60.720275,OCHAVA SO
7517,AVELLANEDA y PELLEGRINI,7517,-32.950127,-60.681717,OCHAVA SE
2231,OVIDIO LAGOS y VIAMONTE,2231,-32.961084,-60.6661,OCHAVA NO
9414,URQUIZA y SAN NICOLAS,9414,-32.936772,-60.671326,OCHAVA NE
4504,BERUTI y RUEDA,4504,-32.974359,-60.626199,OCHAVA SE
2713,GARIBALDI y IRIONDO,2713,-32.980379,-60.679692,OCHAVA SO
7831,ANGELOME (Funes) y RUTA NAC. 9 (Funes),7831,-32.921147,-60.812342,OCHAVA NO
5252,SOLDADO AGUIRRE (VGG) y RICHIERI (VGG),5252,-33.029875,-60.653271,OCHAVA SO
9462,MOSCONI y MASCARDI,9462,-32.984219,-60.680782,OCHAVA SO
9996,RONDEAU y GURRUCHAGA,9996,-32.905073,-60.689477,OCHAVA NO
2805,D. CRESPO y CENTENO,2805,-32.979287,-60.677951,OCHAVA NO
6660,RONDEAU y NANSEN,6660,-32.909261,-60.688214,OCHAVA NO
6473,LAMADRID y SAN NICOLAS,6473,-32.998290927,-60.685077934,OCHAVA SO
2551,SEGUI y PTE. ROCA,2551,-32.977687,-60.653207,OCHAVA NE
7682,BRIGADIER LOPEZ (Soldini) y ECUADOR (Soldini),7682,-33.02703,-60.757337,OCHAVA SE
5499,NECOCHEA y ITUZAINGO,5499,-32.963314,-60.627685,OCHAVA SE
3378,H. YRIGOYEN y MEDRANO,3378,-32.884633,-60.703579,OCHAVA NE
5551,EVA PERON (Baigorria) y JUNIN (Baigorria),5551,-32.858662998,-60.718839632,OCHAVA SO
2009,MITRE y J. M. GUTIERREZ,2009,-32.994101,-60.650603,OCHAVA SE
5886,RUTA NAC. 9 (Funes) y LAS HERAS (Funes),5886,-32.913805286,-60.860796012,OCHAVA NE
5583,SAN MARTIN y LAMADRID,5583,-32.996894,-60.648186,OCHAVA NO
3768,JUAN B. JUSTO y NICARAGUA,3768,-32.91519,-60.721463,OCHAVA SO
8333,SARMIENTO y J. DE GARAY,8333,-32.974382,-60.645296,OCHAVA NO
5871,GRAL. PAZ (Funes) y ANGELOME (Funes),5871,-32.914537,-60.810422,OCHAVA NE
4010,SAN MARTIN y E. DE LUCA,4010,-32.994717,-60.64772,OCHAVA NO
6669,CORRIENTES (Baigorria) y ROSARIO (Baigorria),6669,-32.860362566,-60.700291608,OCHAVA SE
1089,RONDEAU y BAIGORRIA,1089,-32.891503,-60.692883,OCHAVA SE
5032,PROVINCIAS UNIDAS y SAN LORENZO,5032,-32.934599,-60.71275,OCHAVA SE
5761,OVIDIO LAGOS y COULIN,5761,-32.987484,-60.672615,OCHAVA NO
7837,TUCUMAN y BALCARCE,7837,-32.939369,-60.650866,OCHAVA SO
9123,LAPRIDA y COCHABAMBA,9123,-32.959038,-60.637331,OCHAVA NO
1727,ING. ACEVEDO y FRANCIA,1727,-32.984312,-60.677275,OCHAVA SO
4673,CALLE 1379 y COLASTINE,4673,-32.881848,-60.717982,OCHAVA NO
8650,PTE. ROCA y SEGUI,8650,-32.978001,-60.65328,OCHAVA SE
9812,VIRASORO y ESPAÑA,9812,-32.968461,-60.652529,OCHAVA SO
5974,UNION y PALESTINA,5974,-32.88587,-60.704619,OCHAVA SE
9807,CANNING y CILVETI,9807,-32.925778,-60.674874,OCHAVA SE
8560,OROÑO y ARABE UNIDA,8560,-32.984198,-60.663698,OCHAVA NO
5843,PTE. QUINTANA y CALLAO,5843,-32.978521,-60.669076,OCHAVA NE
5115,PARAGUAY y ITUZAINGO,5115,-32.959628,-60.647396,OCHAVA NO
3822,BUENOS AIRES y AMENABAR,3822,-32.97325102,-60.639135257,OCHAVA SE
1795,A. FRONDIZI y CORDIVIOLA,1795,-32.912206,-60.67551,OCHAVA SO
2748,J. J. PASO y M. CABAL,2748,-32.919808,-60.702549,OCHAVA NE
9633,R. DEL SALVADOR y DEAN FUNES,9633,-32.967549,-60.712676,OCHAVA SE
5984,SOLDADO AGUIRRE (VGG) y N. HUAPI (VGG),5984,-33.029795,-60.650874,OCHAVA SO
5804,PAVON y J. M. GUTIERREZ,5804,-32.993485,-60.634588,OCHAVA NO
1825,EVA PERON y JOSE COLOMBRES,1825,-32.930072,-60.729811,OCHAVA SO
5945,SALTA y PUEYRREDON,5945,-32.936076,-60.655717,OCHAVA SO
9044,BUENOS AIRES y GRAL. SAVIO,9044,-32.996386,-60.644935,OCHAVA SE
4835,JUJUY y CALLAO,4835,-32.934266,-60.657911,OCHAVA NE
3203,BATLLE Y ORDOÑEZ y SALVA,3203,-33.008777,-60.640049,OCHAVA SO
3801,BATLLE Y ORDOÑEZ y ARTEAGA,3801,-33.008884,-60.643587,OCHAVA SO
4243,PRIMERO DE MAYO y MENDOZA,4243,-32.953056,-60.630934,OCHAVA SE
7705,VIRASORO y SUIPACHA,7705,-32.965336,-60.670251,OCHAVA SO
7791,PROVINCIAS UNIDAS y LA PAZ,7791,-32.955629,-60.712126,OCHAVA NO
6078,ARIJON y D. CRESPO,6078,-33.003875,-60.680423,OCHAVA NE
1103,SANTA FE y AVELLANEDA,1103,-32.937686,-60.678572,OCHAVA NE
7279,MORENO y RIOJA,7279,-32.945415,-60.650812,OCHAVA SE
5888,OVIDIO LAGOS y ANT. C. A SOLDINI,5888,-33.025824,-60.681212,OCHAVA NO
8882,ARIJON y MELIAN,8882,-33.003438,-60.659882,OCHAVA SO
2385,URIBURU y MITRE,2385,-32.990642,-60.650649,OCHAVA NE
7702,BATLLE Y ORDOÑEZ y IRIONDO,7702,-33.009831,-60.681258,OCHAVA N
6024,27 DE FEBRERO y SUIPACHA,6024,-32.962812,-60.669373,OCHAVA NE
1167,PELLEGRINI y ITALIA,1167,-32.955689,-60.650734,OCHAVA SO
5729,SAN MARTIN y RUEDA,5729,-32.9712,-60.642993,OCHAVA NO
3024,CASIANO CASAS y SORRENTO,3024,-32.907155,-60.696087,OCHAVA NO
1109,RONDEAU y L. VILA,1109,-32.898187,-60.691756,OCHAVA NO
3136,MARCO POLO y BERMUDEZ,3136,-33.010653,-60.64211,OCHAVA NE
1292,SANTA FE y GUTENBERG,1292,-32.936196,-60.686822,OCHAVA NE
5377,MENDOZA y SANCHEZ DE LORIA,5377,-32.940237,-60.731802,OCHAVA SO
2335,MOLINA y P. RIVERA,2335,-32.890152,-60.705015,OCHAVA NO
2650,RIACHUELO y PJE. 2012,2650,-33.004702,-60.688026,OCHAVA NE
8542,URQUIZA y DORREGO,8542,-32.940919,-60.648265,OCHAVA NE
9558,URIBURU y ITALIA,9558,-32.990929,-60.659419,OCHAVA NE
6441,LAMADRID y CASTRO BARROS,6441,-32.996581,-60.629809,OCHAVA SO
2515,J. J. PASO y MEJICO,2515,-32.920578,-60.719371,OCHAVA SO
4546,ITALIA y BRANDONI,4546,-33.006312331,-60.658982705,OCHAVA SE
5964,OVIDIO LAGOS y JUAN PABLO II,5964,-33.006663,-60.67692,OCHAVA NO
5460,BALCARCE y ANCHORENA,5460,-32.998196852,-60.663573819,OCHAVA NO
7133,OROÑO y REGIMIENTO 11,7133,-32.999331,-60.664854,OCHAVA SE
9242,SARMIENTO y GABOTO,9242,-32.973238,-60.644999,OCHAVA NO
8127,L. N. ALEM y 9 DE JULIO,8127,-32.955548,-60.63025,OCHAVA NO
6951,NECOCHEA y GARIBALDI,6951,-32.988551,-60.634044,OCHAVA SE
9597,PUEYRREDON y ARIJON,9597,-33.00372,-60.669012,OCHAVA SE
8162,PTE. ROCA y GARIBALDI,8162,-32.984809,-60.655006,OCHAVA SE
8274,ALFONSIN ( RUTA 26) (VGG) y PJE. LOS ANDES (VGG),8274,-33.034023,-60.656101,OCHAVA NO
7315,NTRA. SRA. ROSARIO y D. CRESPO,7315,-33.000959,-60.680737,OCHAVA NE
2512,AMEGHINO y SAN NICOLAS,2512,-32.980925,-60.682433,OCHAVA NE
3777,FRANCIA y FRAGATA SARMIENTO,3777,-32.988046,-60.67708,OCHAVA SE
3560,RUTA NAC. 34 (Ibarlucea) y RITA DE IBARLUCEA (Ibarlucea),3560,-32.862754,-60.771351,OCHAVA NO
4409,OROÑO y 24 DE SETIEMBRE,4409,-32.9774,-60.66197,OCHAVA NO
4896,BROWN (Baigorria) y LINIERS (Baigorria),4896,-32.858745093,-60.715705235,OCHAVA SO
1668,SAN LORENZO y OVIDIO LAGOS,1668,-32.940033,-60.660977,OCHAVA SO
8156,SOLDADO AGUIRRE (VGG) y SAN LORENZO (VGG),8156,-33.029598,-60.645294,OCHAVA SO
7612,RONDEAU y FREYRE,7612,-32.893388,-60.692295,OCHAVA SE
3973,DONADO y WHITE,3973,-32.942101,-60.72683,OCHAVA SE
9846,Ab. GRANDOLI y SEGUI,9846,-32.982529,-60.627912,OCHAVA SE
9816,J. J. PASO y DOMINICANA,9816,-32.919613,-60.690314,OCHAVA SO
6530,JOSE M. ROSA y DAVALOS,6530,-32.889865,-60.717523,OCHAVA NO
4788,PTE. ROCA y GALVEZ,4788,-32.967595,-60.650669,OCHAVA SE
2966,ABORIG. ARGENTINOS y QOM,2966,-32.981266194,-60.704446016,OCHAVA S
5229,CALLE 1379 y SALVAT,5229,-32.883320413,-60.717495312,OCHAVA SE
4876,P. MUSTO y JUAN A. MAZA,4876,-32.872908,-60.693036,OCHAVA SO
6636,UNION y H. YRIGOYEN,6636,-32.88485,-60.704667,OCHAVA SE
3266,PROVINCIAS UNIDAS y MONTEVIDEO,3266,-32.94752,-60.712124,OCHAVA SE
2921,OROÑO y COULIN,2921,-32.989088,-60.664562,OCHAVA SE
6633,SANTA FE y PTE. ROCA,6633,-32.943796,-60.644556,OCHAVA NE
9037,ALFONSIN ( RUTA 26) (VGG) y MONTEVIDEO (VGG),9037,-33.033018,-60.655889,OCHAVA NO
5369,SAN LORENZO y CALLAO,5369,-32.940277,-60.659618,OCHAVA SO
3872,J. FONTANA y JOAQUIN SUAREZ,3872,-32.89288,-60.723464,OCHAVA S
9925,SAN LUIS y RICCHERI,9925,-32.94468,-60.663571,OCHAVA SO
9902,ENTRE RIOS y CENTENO,9902,-32.984214,-60.650699,OCHAVA NO
4143,BATLLE Y ORDOÑEZ y PTE. ROCA,4143,-33.008936,-60.655833,OCHAVA NE
3102,LIMITE MUNICIPIO y URUGUAY,3102,-32.969239,-60.733495,OCHAVA SE
1735,SAN JUAN y CORRIENTES,1735,-32.949389,-60.643014,OCHAVA N
4776,CORRIENTES y CORDOBA,4776,-32.945829,-60.642328,OCHAVA SE
8734,SANTA FE y OVIDIO LAGOS,8734,-32.940884,-60.66078,OCHAVA NE
2826,P. AGRELO y MATHEU,2826,-32.888306,-60.692756,OCHAVA NO
2221,ESPAÑA y AMENABAR,2221,-32.970594,-60.653065,OCHAVA NO
6207,BATLLE Y ORDOÑEZ y CORRIENTES,6207,-33.008848,-60.652924,OCHAVA NE
5319,LAMADRID y ENTRE RIOS,5319,-32.997232,-60.652126,OCHAVA SO
6307,RONDEAU y LARRECHEA,6307,-32.896339,-60.691402,OCHAVA SE
4081,A. RIVERO y PJE. 1870,4081,-32.974721,-60.699663,OCHAVA SO
9114,L. N. ALEM y 3 DE FEBRERO,9114,-32.954353,-60.629959,OCHAVA NO
2026,JOSE COLOMBRES y GENOVA,2026,-32.916388,-60.730509,OCHAVA NO
1473,SAN MARTIN y URIBURU,1473,-32.990522,-60.646822,OCHAVA NO
4101,ESPAÑA y 24 DE SETIEMBRE,4101,-32.978633,-60.65509,OCHAVA NO
8852,ITALIA y CERRITO,8852,-32.960232,-60.651685,OCHAVA SE
5693,GUEMES y OVIDIO LAGOS,5693,-32.931694,-60.658682,OCHAVA NE
2704,MARTIN RODRIGUEZ y AMENABAR,2704,-32.968413,-60.665305,OCHAVA NO
1978,PELLEGRINI y FRANCIA,1978,-32.952508,-60.668474,OCHAVA SO
6764,CARBALLO y ESTRADA,6764,-32.92192,-60.676815,OCHAVA NE
4185,J D PERON (VGG) y GARAY (VGG),4185,-33.022462798,-60.622262351,OCHAVA NO
3401,FRANCIA y NTRA. SRA. ROSARIO,3401,-33.001046,-60.677584,OCHAVA SE
1630,REAL y JORGE NEWBERY,1630,-32.917873,-60.777845,OCHAVA S
1563,SANTA FE y CONSTITUCION,1563,-32.938928,-60.672985,OCHAVA SE
3339,NICARAGUA y COCHABAMBA,3339,-32.950071,-60.720191,OCHAVA SE
5287,PELLEGRINI y PUEYRREDON,5287,-32.953715,-60.659982,OCHAVA NE
5374,LAMADRID y DIRECTORIO,5374,-32.997098,-60.646866,OCHAVA SO
4786,3 DE FEBRERO y RICCHERI,4786,-32.948308,-60.664298,OCHAVA NE
5537,27 DE FEBRERO y MARTIN RODRIGUEZ,5537,-32.964057,-60.664215,OCHAVA SO
5756,LARREA y SANTA FE,5756,-32.935205,-60.697559,OCHAVA NO
9160,CALLAO y GUEMES,9160,-32.932082,-60.65736,OCHAVA SE
8435,URIBURU y PAVON,8435,-32.990432,-60.63474,OCHAVA SO
5041,SEGUI y CORRIENTES,5041,-32.978185,-60.650441,OCHAVA NE
6454,SERRANO y ARIJON,6454,-33.002396,-60.631851,OCHAVA NO
1245,PELLEGRINI y BALCARCE,1245,-32.954685,-60.654563,OCHAVA NE
2328,BUENOS AIRES y AYOLAS,2328,-32.977856,-60.64026,OCHAVA SE
3816,BATLLE Y ORDOÑEZ y OVIDIO LAGOS,3816,-33.009638,-60.677062,OCHAVA NE
4355,PTE. PERON y CONSTITUCION,4355,-32.957076,-60.678071,OCHAVA SO
8263,PROVINCIAS UNIDAS y JUNIN,8263,-32.927499,-60.713351,OCHAVA NO
1616,OVIDIO LAGOS y SEGUI,1616,-32.974765,-60.669546,OCHAVA NO
3335,PALLIERE y JOSE M. ROSA,3335,-32.88753,-60.715693,OCHAVA SO
9077,G. BROWN y SUIPACHA,9077,-32.93251,-60.661917,OCHAVA SO
7619,PROVINCIAS UNIDAS y VELEZ SARSFIELD,7619,-32.926098,-60.713083,OCHAVA SE
3029,FOREST y GUATEMALA,3029,-32.943715,-60.717185,OCHAVA SO
3924,UGARTECHE y CASACUBERTA,3924,-32.929442,-60.759457,OCHAVA NO
8767,DORREGO y CATAMARCA,8767,-32.938548,-60.647822,OCHAVA NO
2917,LITUANIA y J. CHAPO,2917,-32.999246,-60.621143,OCHAVA NO
6760,JUNIN y F. MORE,6760,-32.927145,-60.694028,OCHAVA SO
7364,OMAR CARRASCO y OCAMPO,7364,-32.96214,-60.667781,OCHAVA SE
6728,PELLEGRINI y MARTIN RODRIGUEZ,6728,-32.95347,-60.66134,OCHAVA NE
2998,JUAN B. JUSTO y PROVINCIAS UNIDAS,2998,-32.914989,-60.714005,OCHAVA SO
4859,AMENABAR y BUENOS AIRES,4859,-32.973224073,-60.639258299,OCHAVA SO
6694,MITRE (VGG) y BOMBEROS VOLUNTARIOS (VGG),6694,-33.024467,-60.633082,OCHAVA NE
9038,27 DE FEBRERO y C. ALDAO,9038,-32.958621,-60.695171,OCHAVA NE
2168,JUNIN y CAMPBELL,2168,-32.927537,-60.708693,OCHAVA SO
4553,OVIDIO LAGOS y OCAMPO,4553,-32.962231,-60.666385,OCHAVA NO
8837,MITRE y SANTA FE,8837,-32.944866,-60.639179,OCHAVA SE
8844,SAN JUAN y DORREGO,8844,-32.948115,-60.650082,OCHAVA NE
1745,SAN LORENZO y SAN MARTIN,1745,-32.9448,-60.636307,OCHAVA SO
2791,BAIGORRIA y MEDRANO,2791,-32.893388,-60.702081,OCHAVA NE
3890,GALVEZ y NECOCHEA,3890,-32.971184,-60.629674,OCHAVA NE
5380,RIVADAVIA y CARLOS M. ALVEAR,5380,-32.931917,-60.651827,OCHAVA SO
9473,DORREGO y COCHABAMBA,9473,-32.956364,-60.652319,OCHAVA NO
8140,ITALIA y NTRA. SRA. ROSARIO,8140,-33.000487768,-60.659164152,OCHAVA SE
8997,ILLIA (Funes) y H. YRIGOYEN (Funes),8997,-32.929231185,-60.812717014,OCHAVA SO
6349,COCHABAMBA y SAN NICOLAS,6349,-32.952249,-60.675229,OCHAVA NE
6160,AVELLANEDA y SEGUI,6160,-32.971536,-60.68752,OCHAVA NO
4503,JUJUY y DORREGO,4503,-32.936226,-60.647078,OCHAVA NE
6852,CORRIENTES y MENDOZA,6852,-32.95083,-60.643581,OCHAVA SE
5630,JUNIN y CANGALLO,5630,-32.926697,-60.677786,OCHAVA SO
7181,PELLEGRINI y CENTENARIO N.O.B.,7181,-32.953935,-60.660474,OCHAVA SO
7034,ALVAREZ THOMAS y VUCETICH,7034,-32.885531,-60.689374,OCHAVA SE
8966,SAN NICOLAS y DR. F. RIVA,8966,-32.977633,-60.681645,OCHAVA SE
3643,ROUILLON y B. RODRIGUEZ,3643,-32.972488664,-60.701153353,OCHAVA NO
4711,DOMINICANA y R. DARIO,4711,-32.921781,-60.691027,OCHAVA NO
7124,FRANCIA y VIRASORO,7124,-32.964886,-60.671602,OCHAVA NO
9003,TEMPORELLI (VGG) y CRESPO (VGG),9003,-33.036561,-60.649326,OCHAVA SO
3028,SUPERI y MOLINA,3028,-32.896641,-60.704634,OCHAVA SO
3605,NTRA. SRA. ROSARIO y LITUANIA,3605,-32.998024,-60.620147,OCHAVA NE
3615,JUAN XXIII y MAGALLANES,3615,-32.97326,-60.703344,OCHAVA SO
1906,PELLEGRINI y LIMA,1906,-32.949071,-60.685808,OCHAVA NE
3718,ABORIG. ARGENTINOS y CAMPBELL,3718,-32.981412,-60.706332,OCHAVA SO
3557,URIBURU y PTE. ROCA,3557,-32.990833,-60.656534,OCHAVA NE
3695,SAN NICOLAS y VIRASORO,3695,-32.963871,-60.678172,OCHAVA SE
8355,ESPAÑA y COULIN,8355,-32.990099,-60.657997,OCHAVA NO
1391,PELLEGRINI y C. COLON,1391,-32.959495077,-60.628135993,OCHAVA NE
5561,BAIGORRIA y DARREGUEIRA,5561,-32.891992,-60.695754,OCHAVA NE
6604,SALTA y CARLOS M. ALVEAR,6604,-32.936564,-60.653,OCHAVA SO
7440,SAN MARTIN y CABILDO,7440,-33.007313,-60.650437,OCHAVA NO
8704,AVELLANEDA y PTE. QUINTANA,8704,-32.975075,-60.688395,OCHAVA NO
8004,GENOVA y GALLINI,8004,-32.915208,-60.689166,OCHAVA NE
3899,27 DE FEBRERO y CAMPBELL,3899,-32.959062,-60.707105,OCHAVA NE
2777,OVIDIO LAGOS y CALLE 1211,2777,-32.983139,-60.671191,OCHAVA SE
2465,ROUILLON y BISELLI,2465,-32.972051209,-60.700876333,OCHAVA SE
6673,PELLEGRINI y AVELLANEDA,6673,-32.949821,-60.68164,OCHAVA NE
9453,UGARTECHE y E. ALIPPI,9453,-32.930788,-60.759156,OCHAVA NO
5532,ENTRE RIOS y ITUZAINGO,5532,-32.960135,-60.644622,OCHAVA NO
3236,JORGE NEWBERY y MALABIA,3236,-32.90933,-60.760266,OCHAVA SO
9508,URIBURU y VUELTA DE OBLIGADO,9508,-32.991333,-60.663131,OCHAVA SO
3238,ENTRE RIOS y AMENABAR,3238,-32.971591,-60.647518,OCHAVA NO
9879,SAN LORENZO y LAVALLE,9879,-32.937107,-60.677292,OCHAVA SO
2357,PTE. QUINTANA y AVELLANEDA,2357,-32.975126,-60.688029,OCHAVA NE
3226,PELLEGRINI y SOLIS,3226,-32.948484,-60.703083,OCHAVA SO
5468,SAN LUIS y CAFFERATA,5468,-32.94322,-60.67173,OCHAVA SO
2171,PUEYRREDON y REGIMIENTO 11,2171,-32.999484,-60.669164,OCHAVA SE
8826,MITRE y J. CANALS,8826,-32.989244,-60.650295,OCHAVA SE
1222,OROÑO y EST. DE ISRAEL,1222,-32.991935,-60.665078,OCHAVA SE
3905,PROVINCIAS UNIDAS y DEAN FUNES,3905,-32.96736,-60.711675,OCHAVA NO
5880,J. CURA y CALLAO,5880,-32.96985,-60.666888,OCHAVA NE
8427,BAIGORRIA y CAMAÑA,8427,-32.893813,-60.716246,OCHAVA NE
4905,JUAN B. JUSTO y OLMOS,4905,-32.915817,-60.744442,OCHAVA SO
6310,CARLOS COLOMBRES y GURRUCHAGA,6310,-32.902863338,-60.68145952,OCHAVA O
7494,VIAMONTE y CAMPBELL,7494,-32.956666,-60.707197,OCHAVA NE
6598,LOS PLATANOS (Baigorria) y EX COMBATIENTES (Baigorria),6598,-32.864777704,-60.700097314,OCHAVA NE
3662,H. YRIGOYEN y ANCHORIS,3662,-32.884782,-60.702624,OCHAVA SO
3512,PROVINCIAS UNIDAS y GORRITI,3512,-32.924496,-60.713145,OCHAVA SE
4683,LINIERS y VIAMONTE,4683,-32.956576,-60.697823,OCHAVA SE
3308,VENEZUELA y LA REPUBLICA,3308,-32.918997,-60.7253,OCHAVA SE
4817,MAIPU y SAN JUAN,4817,-32.950751,-60.636166,OCHAVA SE
4777,LA PAZ y IRIONDO,4777,-32.958597,-60.674184,OCHAVA SO
3775,AVELLANEDA y VIRASORO,3775,-32.962662,-60.684897,OCHAVA SE
4264,SALTA y CORRIENTES,4264,-32.938737,-60.640685,OCHAVA SO
4023,ITALIA y VIRASORO,4023,-32.968261,-60.653699,OCHAVA SE
4660,BIEDMA y SUIPACHA,4660,-32.976769,-60.673082,OCHAVA SO
2150,AVELLANEDA y SEGUI,2150,-32.97191,-60.687216,OCHAVA SE
6243,GABOTO y CARLOS M. ALVEAR,6243,-32.970324,-60.661327,OCHAVA NE
4646,J D PERON (VGG) y PASTEUR (VGG),4646,-33.026351257,-60.625845695,OCHAVA NO
4755,SAN MARTIN y REGIMIENTO 11,4755,-32.998585,-60.648551,OCHAVA NO
2119,INT. LAMAS y 8 DE NOVIEMBRE,2119,-32.911239,-60.692648,OCHAVA NO
7292,MAGALDI y WILDE,7292,-32.936684,-60.738785,OCHAVA SO
2883,SEGUI y MITRE,2883,-32.978964,-60.647886,OCHAVA SO
5847,ARIJON y SAN MARTIN,5847,-33.003104,-60.648654,OCHAVA S
2887,SALTA y FRANCIA,2887,-32.934601,-60.663962,OCHAVA SO
4941,DOMINICANA y FRENCH,4941,-32.921056,-60.690261,OCHAVA NO
8216,SAN LORENZO y RIO DE JANEIRO,8216,-32.936618,-60.680011,OCHAVA SO
4027,MATIENZO y SEGUI,4027,-32.970365,-60.693622,OCHAVA NO
2217,FLOR DE NACAR y ROSA SILVESTRE,2217,-33.018831,-60.660416,OCHAVA SE
9246,TUCUMAN y MARTIN RODRIGUEZ,9246,-32.938167,-60.657665,OCHAVA SO
4922,OROÑO y FRAGATA SARMIENTO,4922,-32.99001,-60.665176,OCHAVA NO
8168,ESPAÑA y J. CANALS,8168,-32.987807,-60.657415,OCHAVA NO
4846,VELEZ SARSFIELD y IGUAZU,4846,-32.925062,-60.686397,OCHAVA NE
8685,PTE. ROCA y 3 DE FEBRERO,8685,-32.951589,-60.646652,OCHAVA SE
8836,LAS PALMERAS y CALLE 1821,8836,-32.983341,-60.735929,OCHAVA O
6321,SEGUI y CORRIENTES,6321,-32.978462,-60.6507,OCHAVA SO
5616,PTE. ROCA y 27 DE FEBRERO,5616,-32.966517,-60.6504,OCHAVA SE
3857,FRANCIA y CMDRO. RIVADAVIA,3857,-32.988967,-60.677695,OCHAVA NO
2766,A. SABIN y J. J. PASO,2766,-32.919562,-60.688525,OCHAVA SE
9732,BATLLE Y ORDOÑEZ y SAN MARTIN,9732,-33.009011,-60.650803,OCHAVA SO
8296,LIMITE MUNICIPIO y MORROW,8296,-32.872594,-60.736009,OCHAVA SO
7376,EL JILGUERO (Perez) y LAS CASUARINAS (Perez),7376,-32.969246564,-60.736286145,OCHAVA NE
8725,DOMINICANA y R. DARIO,8725,-32.921865,-60.690793,OCHAVA SE
7050,MENDOZA y CORRIENTES,7050,-32.950814,-60.643729,OCHAVA SO
5872,PROVINCIAS UNIDAS y PASCO,5872,-32.950862,-60.712309,OCHAVA NO
5891,JUNIN y P. L. FUNES,5891,-32.927353,-60.701802,OCHAVA SO
6265,D. CRESPO y H. DE LA QUINTANA,6265,-33.001911,-60.680505,OCHAVA SE
8497,ANCHORENA y CASTRO BARROS,8497,-32.99711164,-60.629550601,OCHAVA NE
6912,3 DE FEBRERO y CARLOS M. ALVEAR,6912,-32.949773,-60.656146,OCHAVA NE
3846,URQUIZA y CARRIEGO,3846,-32.933932,-60.687113,OCHAVA NE
1988,MENDOZA y MAGALLANES,1988,-32.940125,-60.70459,OCHAVA SO
7597,AVELLANEDA y SAN LUIS,7597,-32.941803,-60.679612,OCHAVA SE
8025,BAIGORRIA y GAMBARTES,8025,-32.89379,-60.707481,OCHAVA NE
6688,J. J. PASO y ALBERDI,6688,-32.919382,-60.682514,OCHAVA SO
2144,ITALIA y AMENABAR,2144,-32.970545,-60.654286,OCHAVA SE
8520,NECOCHEA y 9 DE JULIO,8520,-32.956377,-60.62601,OCHAVA SE
7756,R. RIVAROLA y MANUEL GONZALEZ,7756,-32.966526,-60.730973,OCHAVA SO
9575,LAMADRID y GRAL. PAZ,9575,-32.996509,-60.627435,OCHAVA SO
5758,L. GIANNEO SUR y Z. PEREYRA,5758,-32.89067,-60.713,OCHAVA SO
3719,MEJICO y J. INGENIEROS,3719,-32.917167,-60.719505,OCHAVA NO
6828,SAN MARTIN y E. DE LUCA,6828,-32.994821,-60.647742,OCHAVA NO
4401,FILIPPINI (VGG) y SAN DIEGO (VGG),4401,-33.019435,-60.636513,OCHAVA NO
3788,AVELLANEDA y PJE. 2103,3788,-33.018617,-60.689089,OCHAVA SE
8563,TEMPORELLI (VGG) y ROSARIO (VGG),8563,-33.035451,-60.642258,OCHAVA NE
8760,ILLIA (Funes) y CAÑADA DE GOMEZ (Funes),8760,-32.927782,-60.77229,OCHAVA SO
5698,OVIDIO LAGOS y ANDRADE,5698,-32.996395,-60.674757,OCHAVA NO
6487,ARIJON y CORRIENTES,6487,-33.00304,-60.65319,OCHAVA NE
8253,DORREGO y VIAMONTE,8253,-32.963236,-60.654051,OCHAVA NO
1199,OVIDIO LAGOS y J. CURA,1199,-32.969972,-60.667985,OCHAVA SE
2536,FOREST y PROVINCIAS UNIDAS,2536,-32.943579,-60.712611,OCHAVA SO
7659,PARAGUAY y ACOYTE,7659,-33.011595,-60.654241,OCHAVA SE
6147,MORENO y ZEBALLOS,6147,-32.952847143,-60.652745204,OCHAVA SE
9768,J D PERON (VGG) y SAN DIEGO (VGG),9768,-33.018897,-60.618446,OCHAVA SE
4328,ESPAÑA y URUGUAY,4328,-32.975188,-60.654234,OCHAVA NO
2656,L. BATLLE y CULLEN Y UGARTE,2656,-32.877825,-60.728646,OCHAVA NO
1602,MAIPU y PELLEGRINI,1602,-32.957943,-60.638093,OCHAVA SE
3291,JUAN XXIII y GARZON,3291,-32.973291,-60.704488,OCHAVA SO
6594,3 DE FEBRERO y MITRE,6594,-32.952471,-60.641052,OCHAVA NE
1586,PTE. PERON y ALSINA,1586,-32.957417,-60.681005,OCHAVA SO
3230,URIZAR y BERNHEIM,3230,-32.936008818,-60.744064352,OCHAVA SE
1339,SAN JUAN y OROÑO,1339,-32.947413,-60.654046,OCHAVA NE
9259,SAN MARTIN y E. DE LUCA,9259,-32.994939,-60.647485,OCHAVA SE
4929,URIBURU y OROÑO,4929,-32.991096,-60.664865,OCHAVA NE
2482,DONADO y LA REPUBLICA,2482,-32.919066,-60.727846,OCHAVA SE
2177,HUMBERTO PRIMERO y BACARIS,2177,-32.929606,-60.679241,OCHAVA SO
7909,JOSE M. ROSA y SANTA COLOMA,7909,-32.90445,-60.725909,OCHAVA O
9805,OROÑO y DR. F. RIVA,9805,-32.981066,-60.662522,OCHAVA SE
8732,V. GOMEZ y M. FIERRO,8732,-32.878443,-60.700621,OCHAVA SE
4747,PTE. PERON y PERU,4747,-32.967173,-60.710227,OCHAVA NE
7040,CORRIENTES y SALTA,7040,-32.93887,-60.640563,OCHAVA SE
7895,ENTRE RIOS y EST. DE ISRAEL,7895,-32.991846,-60.652383,OCHAVA NO
7996,MITRE y SAN LUIS,7996,-32.94885,-60.640148,OCHAVA SE
7047,CASEROS y ARENALES,7047,-32.925918,-60.665574,OCHAVA SE
1846,DONADO y BRASSEY,1846,-32.92279,-60.727778,OCHAVA NO
9950,SOLDADO AGUIRRE (VGG) y RICHIERI (VGG),9950,-33.029761,-60.653177,OCHAVA NE
5138,JOSE M. ROSA y MONTEVIDEO,5138,-32.947334,-60.722769,OCHAVA NO
6023,CEPEDA y REGIMIENTO 11,6023,-32.998126,-60.624925,OCHAVA SE
7028,ARIJON y BUENOS AIRES,7028,-33.002994,-60.645026,OCHAVA SO
3579,RUTA 14 (Soldini) y ANTARTIDA ARGENTINA (Soldini),3579,-33.003773,-60.7521,OCHAVA SE
5613,CERRITO y PRIMERO DE MAYO,5613,-32.963443,-60.633679,OCHAVA SO
4597,SEGUI y ITALIA,4597,-32.977475,-60.656221,OCHAVA SO
1882,URQUIZA y CAFFERATA,1882,-32.937017,-60.669966,OCHAVA NE
9618,SAN MARTIN y REGIMIENTO 11,9618,-32.998716,-60.648579,OCHAVA NO
9328,V. GOMEZ y M. MASSA,9328,-32.875368624,-60.701609334,OCHAVA SE
5597,PELLEGRINI y LINIERS,5597,-32.948039,-60.698153,OCHAVA NE
8682,C. ALDAO y FRENCH,8682,-32.921499,-60.696589,OCHAVA SE
2601,VILLA DEL PARQUE y CULLEN Y UGARTE,2601,-32.878016,-60.728474,OCHAVA SE
7088,LAPRIDA y VIRASORO,7088,-32.970494,-60.640227,OCHAVA NO
2037,NUEVA C. A SOLDINI y AVELLANEDA,2037,-33.021097,-60.689114,OCHAVA NE
9485,D. CRESPO y DR. F. RIVA,9485,-32.978171,-60.677712,OCHAVA NO
7280,ARISTOB. DEL VALLE y CALLAO,7280,-32.931058,-60.657295,OCHAVA SO
4599,SAN LORENZO y PTE. ROCA,4599,-32.942932,-60.644639,OCHAVA SO
7166,FILIPPINI (VGG) y MITRE,7166,-33.024595,-60.637258,OCHAVA NO
6605,9 DE JULIO y CASTELLANOS,6605,-32.947287,-60.677022,OCHAVA SO
1658,AVELLANEDA y DEL V. IBERLUCEA,1658,-32.918499,-60.673773,OCHAVA SE
7557,GUATEMALA y FOREST,7557,-32.94371,-60.717015,OCHAVA SE
9010,TEMPORELLI (VGG) y CRESPO (VGG),9010,-33.036509,-60.649272,OCHAVA NE
9110,PASCO y NECOCHEA,9110,-32.962135,-60.627578,OCHAVA SO
8400,SANTIAGO DEL ESTERO (VGG) y INTENDENTE ANDREU (VGG),8400,-33.010684,-60.613818,OCHAVA SO
7524,LAMADRID y CEPEDA,7524,-32.99647,-60.625187,OCHAVA SO
7742,P. AGRELO y L. VILA,7742,-32.897805,-60.689991,OCHAVA NO
8736,PARAGUAY y SAN JUAN,8736,-32.949073,-60.644733,OCHAVA NO
1835,RONDEAU y M. FIERRO,1835,-32.877703,-60.697817,OCHAVA NO
4577,OROÑO y VIRASORO,4577,-32.967298,-60.659053,OCHAVA SE
8879,RONDEAU y PAGO LARGO,8879,-32.880322,-60.696457,OCHAVA SE
9237,ITALIA y OCAMPO,9237,-32.964802,-60.652844,OCHAVA SE
2488,GENOVA y M. CABAL,2488,-32.915798,-60.702862,OCHAVA SO
8957,GARCIA DEL COSSIO y BAIGORRIA,8957,-32.898311717,-60.747370956,OCHAVA E
7009,TARRAGONA y J. J. PASO,7009,-32.920727,-60.735064,OCHAVA NO
6017,C. SAAVEDRA y BALCARCE,6017,-32.975395,-60.659764,OCHAVA NE
8199,DORREGO y PIEDRAS,8199,-33.007206,-60.660457,OCHAVA NO
7934,CABILDO y J. E. BLANCO,7934,-33.00741,-60.649451,OCHAVA SO
3461,CASIANO CASAS y B. PARERA,3461,-32.902487,-60.70237,OCHAVA SE
7098,RIOJA y S. BAYO,7098,-32.939186,-60.68473,OCHAVA NE
5614,D. CRESPO y AMEGHINO,5614,-32.98161,-60.678581,OCHAVA NO
2700,PELLEGRINI y CAMPBELL,2700,-32.948291,-60.707504,OCHAVA NE
3033,BUENOS AIRES y OCAMPO,3033,-32.967527,-60.637656,OCHAVA SE
7573,AVELLANEDA y ITUZAINGO,7573,-32.95349,-60.682567,OCHAVA SE
9844,PELLEGRINI y SANTIAGO,9844,-32.954228,-60.658864,OCHAVA SO
2242,AYACUCHO y MARCO POLO,2242,-33.010464,-60.635884,OCHAVA NO
9469,MERCANTE y CONGRESO,9469,-32.910613,-60.684407,OCHAVA NO
6453,HERNANDEZ (Funes) y JUAN M. DE ROSAS (Funes),6453,-32.92316,-60.843327,OCHAVA NO
3348,ROUILLON y M. CISNERO,3348,-32.978717,-60.700611,OCHAVA SE
2779,URIBURU y BUENOS AIRES,2779,-32.990748,-60.643923,OCHAVA SO
3641,27 DE FEBRERO y MAGALLANES,3641,-32.959287,-60.703854,OCHAVA SO
9898,CAFFERATA y PTE. QUINTANA,9898,-32.976582639,-60.680114024,OCHAVA NO
4977,D. CRESPO y S. DE BUSTAMANTE,4977,-33.002818,-60.68066,OCHAVA NO
5163,CAFFERATA y SAN LUIS,5163,-32.943061,-60.67169,OCHAVA NO
7061,PROVINCIAS UNIDAS y NAVARRO,7061,-32.931415,-60.7132,OCHAVA NO
6456,PTE. QUINTANA y OVIDIO LAGOS,6456,-32.978351,-60.670023,OCHAVA NE
3789,NICARAGUA y PASCO,3789,-32.951078,-60.720347,OCHAVA NO
7104,LAPRIDA y J. DE GARAY,7104,-32.975084,-60.641383,OCHAVA NO
4322,MERCANTE y GENOVA,4322,-32.915067,-60.684231,OCHAVA NO
2320,URIBURU y LAPRIDA,2320,-32.990467,-60.645075,OCHAVA NE
6634,URQUIZA y GUTENBERG,6634,-32.934081,-60.686288,OCHAVA NE
7476,SAN JUAN y VALPARAISO,7476,-32.942261,-60.682662,OCHAVA NE
5027,ITALIA y 3 DE FEBRERO,5027,-32.951099,-60.64941,OCHAVA SE
5814,WASHINGTON y V. GOMEZ,5814,-32.902062,-60.694789,OCHAVA NE
2940,27 DE FEBRERO y CONSTITUCION,2940,-32.961373,-60.679157,OCHAVA SO
7569,SARMIENTO y ANDRADE,7569,-32.995801,-60.649287,OCHAVA NO
3318,27 DE FEBRERO y MEJICO,3318,-32.959658,-60.717701,OCHAVA SO
3370,MOSCONI y D. CRESPO,3370,-32.984724,-60.679451,OCHAVA SO
5542,RUEDA y CORRIENTES,5542,-32.970228,-60.648434,OCHAVA NE
6479,MENDOZA (17 DE OCTUBRE) (VGG) y MAIPU (VGG),6479,-33.011895,-60.60944,OCHAVA NO
9151,COMANDOS 602 y JUAN XXIII,9151,-32.973717,-60.696525,OCHAVA E
6900,FRANCIA y CMDRO. RIVADAVIA,6900,-32.989192,-60.677373,OCHAVA SE
1261,LAMADRID y SALVA,1261,-32.996907,-60.64054,OCHAVA SO
8217,JUNIN y MAGALLANES,8217,-32.927266,-60.704969,OCHAVA NE
1022,RONDEAU y OLIVE,1022,-32.913127,-60.686463,OCHAVA SE
4262,CORRIENTES y S. DE BUSTAMANTE,4262,-33.002139,-60.653228,OCHAVA SE
6932,CALLE 13102 y CALLE 1399,6932,-32.879351,-60.727172,OCHAVA SE
9168,SAN MARTIN y C. SAAVEDRA,9168,-32.97845,-60.644024,OCHAVA SE
6926,BATLLE Y ORDOÑEZ y OROÑO,6926,-33.00941,-60.665062,OCHAVA SO
2725,P. AGRELO y GALLO,2725,-32.890301,-60.6923,OCHAVA NO
1498,ALBERDI y J. J. PASO,1498,-32.919395,-60.682287,OCHAVA S
7714,LAPRIDA y GALVEZ,7714,-32.969346,-60.639936,OCHAVA NO
7981,FRANCIA y SAN LUIS,7981,-32.944023,-60.666342,OCHAVA NO
4362,CALLAO (Baigorria) y EVA PERON (Baigorria),4362,-32.858861591,-60.723501858,OCHAVA SE
3384,SAN LORENZO y P. ROSAS,3384,-32.935643,-60.685456,OCHAVA SO
4661,MONTEVIDEO y SUIPACHA,4661,-32.95155,-60.666726,OCHAVA SO
8869,CORDOBA y FRANCIA,8869,-32.941553,-60.665822,OCHAVA SO
3257,IGUAZU y JUNIN,3257,-32.926762,-60.685944,OCHAVA NO
4688,DONADO y NAVARRO,4688,-32.931969,-60.727241,OCHAVA SE
5426,LIMITE MUNICIPIO y CALLE 1723,5426,-32.977124,-60.735364,OCHAVA SE
6047,Ab. GRANDOLI y GARIBALDI,6047,-32.989563,-60.628312,OCHAVA SE
8017,CHACABUCO y ITUZAINGO,8017,-32.963374,-60.626457,OCHAVA NO
2558,DR. F. RUIZ y OVIDIO LAGOS,2558,-33.013891,-60.679001,OCHAVA S
4780,SAN DIEGO (VGG) y 12 DE OCTUBRE (VGG),4780,-33.018755634,-60.615964964,OCHAVA NE
6417,SAN JUAN y SUCRE,6417,-32.940791,-60.690831,OCHAVA NE
8118,EVA PERON y BARRA,8118,-32.933943,-60.707034,OCHAVA NE
5043,JORGE NEWBERY y V. SIERRA,5043,-32.908935,-60.758986,OCHAVA NE
6606,ENTRE RIOS y OCAMPO,6606,-32.965869,-60.64606,OCHAVA NO
8857,SAN MARTIN y S. DE BUSTAMANTE,8857,-33.002013,-60.649009,OCHAVA SE
5981,OROÑO y SEGUI,5981,-32.976555,-60.661375,OCHAVA SE
1943,FRANCIA y MADRES PLAZA 25 DE MAYO,1943,-32.926812,-60.661646,OCHAVA SE
1144,SANTA FE y VALPARAISO,1144,-32.937182,-60.681378,OCHAVA NE
9845,27 DE FEBRERO y PERU,9845,-32.959154,-60.710536,OCHAVA NE
1493,RONDEAU y D. PEÑA,1493,-32.879205,-60.697363,OCHAVA NO
7319,JORGE NEWBERY y A. BELLO,7319,-32.909055,-60.748343,OCHAVA SO
1522,JUNIN y ECHEVERRIA,1522,-32.926585,-60.672192,OCHAVA S
7888,OROÑO y EST. DE ISRAEL,7888,-32.992173915,-60.665648474,OCHAVA NO
3532,P. L. FUNES y CERRITO,3532,-32.953092,-60.700585,OCHAVA SE
1598,A. FRONDIZI y NANSEN,1598,-32.908978,-60.678054,OCHAVA E
6758,RONDEAU y MAIZTEGUI,6758,-32.873482,-60.698534,OCHAVA SE
9129,CALLAO (Baigorria) y ORSETTI (Baigorria),9129,-32.8655136,-60.721459281,OCHAVA NO
1059,SARRATEA y BRASSEY,1059,-32.923328,-60.741105,OCHAVA SE
2500,BIEDMA y OVIDIO LAGOS,2500,-32.977167,-60.670861,OCHAVA S
8739,NTRA. SRA. ROSARIO y BELGRANO,8739,-32.999129,-60.617449,OCHAVA SO
3463,JUAN XXIII y ESPINILLO,3463,-32.972961,-60.698937,OCHAVA NE
8753,HUMBERTO PRIMERO y MADRID,8753,-32.929932,-60.68904,OCHAVA SO
8851,JOSE M. ROSA y WHITE,8851,-32.941837,-60.723156,OCHAVA NO
2499,NECOCHEA y DR. F. RIVA,2499,-32.986256,-60.63347,OCHAVA SE
9091,3 DE FEBRERO y MORENO,9091,-32.950499,-60.652086,OCHAVA NE
8021,CORRIENTES y 9 DE JULIO,8021,-32.953146,-60.644155,OCHAVA SE
7144,HERNANDEZ (Funes) y JUAN M. DE ROSAS (Funes),7144,-32.923337,-60.843104,OCHAVA SE
8918,BUENOS AIRES y MONTEVIDEO,8918,-32.957184,-60.635084,OCHAVA SE
8046,27 DE FEBRERO y LAPRIDA,8046,-32.968164,-60.63943,OCHAVA NE
8719,VERA MUJICA y RIOJA,8719,-32.942523,-60.667093,OCHAVA SE
9276,MARTINEZ ESTRADA y TARRAGONA,9276,-32.911193,-60.73523,OCHAVA NE
3609,AVELLANEDA y GABOTO,3609,-32.966106,-60.685773,OCHAVA SE
8959,MITRE y MONTEVIDEO,8959,-32.955955,-60.641932,OCHAVA SE
9801,ALFONSIN ( RUTA 26) (VGG) y PJE. CAPUCHINOS (VGG),9801,-33.032886,-60.655803,OCHAVA SE
3017,PRIMERO DE MAYO y DR. F. RIVA,3017,-32.985275,-60.638981,OCHAVA SE
6467,PELLEGRINI y RICCHERI,6467,-32.952738,-60.665417,OCHAVA NE
7496,CALLE 1379 y MALDONADO,7496,-32.884797,-60.717705,OCHAVA SE
1338,BERUTI y RIOBAMBA,1338,-32.96615,-60.624315,OCHAVA NO
6977,L. GIANNEO NORTE y PALLIERE,6977,-32.8888,-60.713459,OCHAVA NE
5916,PTE. ROCA y PASCO,5916,-32.95843,-60.648355,OCHAVA SE
4607,ITALIA y ZEBALLOS,4607,-32.953317,-60.649975,OCHAVA SE
3860,ARIJON y ENTRE RIOS,3860,-33.003235,-60.651953,OCHAVA SO
9370,PROVINCIAS UNIDAS y NAVARRO,9370,-32.931569,-60.712873,OCHAVA SE
6252,SAN LUIS y LIMA,6252,-32.941019,-60.683969,OCHAVA SO
2574,GENOVA y DE ANGELIS,2574,-32.915678,-60.699081,OCHAVA SO
3858,JUAN M. DE ROSAS y DR. F. RIVA,3858,-32.984795,-60.640733,OCHAVA NO
7704,SAN JUAN y CAFFERATA,7704,-32.944217,-60.671785,OCHAVA NE
5538,MEDRANO y GALLO,5538,-32.892624,-60.702316,OCHAVA SE
8951,SEGUI y ZOLA,8951,-32.970729,-60.695527,OCHAVA SO
3405,OVIDIO LAGOS y MADRE CABRINI,3405,-33.005896,-60.676343,OCHAVA SE
8353,NECOCHEA y URIBURU,8353,-32.990141,-60.63464,OCHAVA NO
3004,CASIANO CASAS y SUPERI,3004,-32.897005,-60.714482,OCHAVA SE
7149,JUJUY y BALCARCE,7149,-32.935737,-60.649799,OCHAVA NE
8574,L. N. ALEM y ZEBALLOS,8574,-32.956884,-60.63059,OCHAVA NO
2756,OVIDIO LAGOS y BATLLE Y ORDOÑEZ,2756,-33.009975,-60.677613,OCHAVA SO
9029,POLLEDO y F. GRANDOLI,9029,-32.886863,-60.720378,OCHAVA SE
5808,PROVINCIAS UNIDAS y SANTA FE,5808,-32.935776,-60.712687,OCHAVA SE
3921,BAIGORRIA y CAVIA,3921,-32.89379,-60.709668,OCHAVA SO
2053,JUNIN y BARRA,2053,-32.927504,-60.707455,OCHAVA SO
6091,BAIGORRIA y ANNA FRANK,6091,-32.89366,-60.711503,OCHAVA NE
9116,SAN MARTIN y ARIJON,9116,-33.003122,-60.649248,OCHAVA SE
6854,MATIENZO y DR. MARADONA,6854,-32.979463,-60.693126,OCHAVA SE
4706,SAN JUAN y LAPRIDA,4706,-32.950936,-60.63489,OCHAVA NE
7802,ALVAREZ CONDARCO y CASACUBERTA,7802,-32.929412,-60.757055,OCHAVA NO
4296,ILLIA (Funes) y ÑANDU (Funes),4296,-32.928697,-60.796927,OCHAVA SO
7356,PELLEGRINI y MITRE,7356,-32.957175,-60.6424,OCHAVA SO
9380,Ab. GRANDOLI y CENTENO,9380,-32.988364,-60.628288,OCHAVA SE
5520,SAN LUIS y MORENO,5520,-32.946856,-60.651333,OCHAVA SO
7147,SANTA FE y PTE. ROCA,7147,-32.943784,-60.644617,OCHAVA NE
4226,PUCCIO y CARLOS COLOMBRES,4226,-32.89363,-60.685985,OCHAVA SO
3528,JUAN B. JUSTO y MEJICO,3528,-32.915139,-60.719577,OCHAVA SO
6523,CERRITO y BUENOS AIRES,6523,-32.962908,-60.636681,OCHAVA SO
3667,MARCO POLO y JULIAN LEIVA,3667,-33.010513,-60.637492,OCHAVA NE
3732,ABORIG. ARGENTINOS y JUAN PABLO II,3732,-32.981439,-60.708967,OCHAVA S
2315,SEGUI y PROVINCIAS UNIDAS,2315,-32.971131,-60.71113,OCHAVA S
1347,OVIDIO LAGOS y SEGUI,1347,-32.975141,-60.669256,OCHAVA SE
7668,SAN DIEGO (VGG) y 12 DE OCTUBRE (VGG),7668,-33.01878006,-60.615995817,OCHAVA SO
4853,MITRE y DEAN FUNES,4853,-32.975477,-60.646814,OCHAVA SE
5591,LA PAZ y RIO DE JANEIRO,5591,-32.956632,-60.685071,OCHAVA SO
1504,SAN JUAN y FRANCIA,1504,-32.945209,-60.666262,OCHAVA NE
3043,RUTA NAC. 9 (Funes) y URQUIZA (Funes),3043,-32.924623,-60.771005,OCHAVA NE
5112,CALLAO y TUCUMAN,5112,-32.937956,-60.658843,OCHAVA SE
5084,FRANCIA y URQUIZA,5084,-32.937942,-60.664805,OCHAVA NO
1488,SAN JUAN y MARTIN RODRIGUEZ,1488,-32.946414,-60.659559,OCHAVA NE
5667,EVA PERON y MUNIAGURRIA,5667,-32.929215,-60.733224,OCHAVA NE
3054,S. DE BUSTAMANTE y BUENOS AIRES,3054,-33.001763,-60.644885,OCHAVA NE
3044,SALTA y D. CRESPO,3044,-32.93413,-60.666592,OCHAVA SO
8811,JUAN PABLO II y LARRECHEA,8811,-32.899567,-60.721798,OCHAVA E
7740,PTE. ROCA y OCAMPO,7740,-32.965304,-60.65008,OCHAVA SE
8937,PROVINCIAS UNIDAS y S. DERQUI,8937,-32.938067,-60.712564,OCHAVA SE
4465,Ab. GRANDOLI y ISOLA,4465,-32.99144,-60.628421,OCHAVA SE
8100,AMENABAR y SAN MARTIN,8100,-32.972514,-60.643313,OCHAVA SO
7661,GONZALEZ DEL SOLAR y SCHWEITZER,7661,-32.913731,-60.737681,OCHAVA NO
1177,AYALA GAUNA y TARRAGONA,1177,-32.91257,-60.734104,OCHAVA S
3148,BROWN (Soldini) y GUATEMALA (Soldini),3148,-33.028085,-60.756029,OCHAVA NO
1289,27 DE FEBRERO y DORREGO,1289,-32.965752,-60.654691,OCHAVA SO
9772,EVA PERON (Baigorria) y CALLAO (Baigorria),9772,-32.858691138,-60.723444587,OCHAVA NE
6313,MORENO y SAN JUAN,6313,-32.947999,-60.651464,OCHAVA SE
6007,TUCUMAN y IRIONDO,6007,-32.936223,-60.668541,OCHAVA SO
2364,SUPERI y ANCHORIS,2364,-32.896027,-60.700319,OCHAVA SO
5943,GABOTO y TTE. AGNETA,5943,-32.964678,-60.698797,OCHAVA NE
1805,SANTA FE y SAN MARTIN,1805,-32.945601,-60.636396,OCHAVA NE
5845,SAN NICOLAS y BIEDMA,5845,-32.975345687,-60.681090068,OCHAVA SE
9322,ANCHORENA y BERMUDEZ,9322,-32.997509,-60.642656,OCHAVA NE
7176,J D PERON (VGG) y CORRIENTES (VGG),7176,-33.010063,-60.614615,OCHAVA SE
9052,ARIJON y PAVON,9052,-33.002664,-60.634131,OCHAVA SO
8710,SAN DIEGO (VGG) y INTENDENTE ANDREU (VGG),8710,-33.018692,-60.613695,OCHAVA SO
1657,SAN JUAN y OVIDIO LAGOS,1657,-32.945926,-60.662276,OCHAVA NE
6403,CATAMARCA y SUIPACHA,6403,-32.935881,-60.662579,OCHAVA NE
5098,PTE. ROCA y DR. F. RIVA,5098,-32.982516,-60.654425,OCHAVA SE
7481,L. N. ALEM y MENDOZA,7481,-32.953148,-60.62967,OCHAVA NO
8586,SCHWEITZER y WILDE,8586,-32.913847477,-60.739384539,OCHAVA NE
5398,ING. ACEVEDO y BRAVARD,5398,-32.983987,-60.672714,OCHAVA N
6644,DONADO y CHASSAING,6644,-32.928722,-60.72736,OCHAVA SE
2435,PALESTINA y BLOMBERG,2435,-32.88653,-60.719381,OCHAVA NE
2561,CALLAO y CAZADORES,2561,-33.004622,-60.671346,OCHAVA NO
2694,ARIJON y ITALIA,2694,-33.003417,-60.659188,OCHAVA SO
5678,DORREGO y URIBURU,5678,-32.99098,-60.661061,OCHAVA NO
5069,UNION y REP. DE IRAK,5069,-32.886731,-60.704729,OCHAVA NO
6033,BALCARCE y GALVEZ,6033,-32.966183,-60.65763,OCHAVA NO
9511,E. DE LUCA y MITRE,9511,-32.995038,-60.650712,OCHAVA SO
2959,ING. ACEVEDO y BRAVARD,2959,-32.984169,-60.672755,OCHAVA S
1477,VIRASORO y ITALIA,1477,-32.968222,-60.653901,OCHAVA SO
3388,OVIDIO LAGOS y J. CANALS,3388,-32.985415,-60.671678,OCHAVA SE
2974,J. J. PASO y C. ALDAO,2974,-32.919806,-60.696847,OCHAVA SO
6545,RIOBAMBA y COLOMBIA,6545,-32.954558433,-60.715444562,OCHAVA NE
2212,A. SABIN y FRENCH,2212,-32.92099,-60.687898,OCHAVA NO
6290,PROVINCIAS UNIDAS y JUAN B. JUSTO,6290,-32.914766,-60.714075,OCHAVA NO
1833,PELLEGRINI y OVIDIO LAGOS,1833,-32.952982,-60.664058,OCHAVA NE
3331,SAN LORENZO y VALPARAISO,3331,-32.936373,-60.681371,OCHAVA SO
7106,CERESETO y CAZADORES,7106,-33.004839,-60.673672,OCHAVA SE
1156,RONDEAU y WASHINGTON,1156,-32.90124,-60.69009,OCHAVA SE
8998,GARCIA DEL COSSIO y J. J. PASO,8998,-32.921032844,-60.746690335,OCHAVA NO
8056,MATIENZO y J. DE GARAY,8056,-32.96571,-60.693803,OCHAVA NO
5325,CHUMBICHA y CALLE 1399,5325,-32.878855377,-60.716197657,OCHAVA SE
8897,RONDEAU y BERON DE ASTRADA,8897,-32.907895,-60.688064,OCHAVA SE
1633,S. ALLENDE y CONGRESO,1633,-32.910754,-60.682173,OCHAVA E
5934,CORRIENTES y PELLEGRINI,5934,-32.956706,-60.645029,OCHAVA SE
5283,PUEYRREDON y EST. DE ISRAEL,5283,-32.992564,-60.669457,OCHAVA SE
8994,VELEZ SARSFIELD y MONTEAGUDO,8994,-32.9246,-60.667406,OCHAVA NE
9326,MENDOZA y F. MORE,9326,-32.941901,-60.69378,OCHAVA SO
8870,URQUIZA y PUEYRREDON,8870,-32.939456,-60.656381,OCHAVA NE
8799,MENDOZA y TTE. AGNETA,8799,-32.940783,-60.699912,OCHAVA SO
2624,BORDABEHERE y FORMOSA,2624,-32.933825,-60.690916,OCHAVA NE
4816,OVIDIO LAGOS y 9 DE JULIO,4816,-32.949575,-60.663386,OCHAVA NO
2933,PROVINCIAS UNIDAS y RIOBAMBA,2933,-32.954589,-60.711846,OCHAVA SE
3289,GENOVA y DE ANGELIS,3289,-32.915487,-60.69896,OCHAVA NE
3680,JOSE COLOMBRES y SCHWEITZER,3680,-32.913541,-60.73063,OCHAVA NO
7591,H. YRIGOYEN y VARELA,7591,-32.884712,-60.700497,OCHAVA SO
1794,PELLEGRINI y CORRIENTES,1794,-32.956679,-60.645208,OCHAVA SO
9301,OVIDIO LAGOS y URUGUAY,9301,-32.972767,-60.668674,OCHAVA SE
4425,J. J. PASO y SARRATEA,4425,-32.920869,-60.740327,OCHAVA N
2264,LITUANIA y ROMA,2264,-33.000441,-60.62187,OCHAVA NO
6645,AMEGHINO y CAFFERATA,6645,-32.981156915,-60.681113192,OCHAVA NE
3005,OVIDIO LAGOS y DEAN FUNES,3005,-32.971396,-60.668714,OCHAVA NO
1341,OVIDIO LAGOS y LA BROCA,1341,-32.969701,-60.668297,OCHAVA NO
8456,AMENABAR y ESPAÑA,8456,-32.970752,-60.653111,OCHAVA SO
4052,GAMBARTES y TABARE,4052,-32.887963,-60.71061,OCHAVA NO
5310,MERCANTE y ARTIGAS,5310,-32.908374,-60.684525,OCHAVA NO
2811,FRANCIA y AMENABAR,2811,-32.967334,-60.671848,OCHAVA SE
6960,PAVLOV y GHIRALDO,6960,-32.899326,-60.704684,OCHAVA SE
1711,EVA PERON y BRASIL,1711,-32.931621,-60.719904,OCHAVA NE
5339,J D PERON (VGG) y SAN MARTIN (VGG),5339,-33.025451379,-60.624643514,OCHAVA SE
2252,OVIDIO LAGOS y S. DE BUSTAMANTE,2252,-33.002888,-60.675716,OCHAVA SE
7903,URQUIZA y LAVALLE,7903,-32.935794,-60.676764,OCHAVA NE
8914,MITRE y AMENABAR,8914,-32.972036,-60.645943,OCHAVA SE
9220,SAN LUIS y LAPRIDA,9220,-32.949805,-60.634675,OCHAVA SO
1074,AYALA GAUNA y JOSE COLOMBRES,1074,-32.912478,-60.73067,OCHAVA SO
6843,JUJUY y SANTIAGO,6843,-32.934997,-60.653835,OCHAVA NE
2703,H. PUJATO y LOS ALISOS,2703,-32.905956,-60.728268,OCHAVA NO
7305,BRIGADIER LOPEZ y SANTIAGO,7305,-32.92822,-60.65529,OCHAVA N
3655,GENOVA y FLYNN,3655,-32.915377,-60.695206,OCHAVA NE
3728,DORREGO y S. DE BUSTAMANTE,3728,-33.002256,-60.660691,OCHAVA NO
7841,SCHWEITZER y COLOMBIA,7841,-32.913087,-60.717538,OCHAVA NE
4036,BERNHEIM y BETINOTTI,4036,-32.935947,-60.740613,OCHAVA SO
4767,SAN NICOLAS y PTE. PERON,4767,-32.956991,-60.676428,OCHAVA SE
5780,JOAQUIN SUAREZ y BENITO ALVAREZ,5780,-32.887886,-60.731022,OCHAVA NO
2116,ROUILLON y BISELLI,2116,-32.972189,-60.701183,OCHAVA O
6161,FILIPPINI (VGG) y MOSCONI (VGG),6161,-33.025726,-60.637228,OCHAVA NO
4752,D. CRESPO y COULIN,4752,-32.986391,-60.679594,OCHAVA SE
2994,P. ARAOZ y ANCHORIS,2994,-32.890683,-60.701961,OCHAVA SO
3564,OVIDIO LAGOS y DR. F. RUIZ,3564,-33.013881,-60.678055,OCHAVA SE
3968,CASIANO CASAS y CAVIA,3968,-32.901626,-60.708403,OCHAVA NE
8613,G. COLOMBRES y BERTOLE,8613,-32.965428,-60.724702,OCHAVA SE
6556,CERRITO y BOLIVIA,6556,-32.953441988,-60.713375271,OCHAVA SO
7688,LIMA y VIAMONTE,7688,-32.957324,-60.687896,OCHAVA SE
3876,J. J. PASO y GARZON,3876,-32.919908,-60.706057,OCHAVA NE
6168,LOS COCOS y L. BRAILLE,6168,-32.883252,-60.708206,OCHAVA NO
1967,PTE. ROCA y VIAMONTE,1967,-32.964169,-60.649792,OCHAVA SE
3147,J. J. PASO y D. CULLEN,3147,-32.920318,-60.709804,OCHAVA SO
3896,BORDABEHERE y RIO DE JANEIRO,3896,-32.933505,-60.679028,OCHAVA N
3165,OVIDIO LAGOS y MADRE CABRINI,3165,-33.005733,-60.676666,OCHAVA NO
6950,AYACUCHO y COCHABAMBA,6950,-32.960536,-60.629823,OCHAVA SE
9272,C. COLON y ITUZAINGO,9272,-32.962887,-60.62919,OCHAVA NO
9025,TUCUMAN y CORRIENTES,9025,-32.94108,-60.641285,OCHAVA SO
2817,PALESTINA y CALLE 1379,2817,-32.886576,-60.717716,OCHAVA S
2049,L. BATLLE y TALCAHUANO,2049,-32.876697,-60.728714,OCHAVA NO
2137,OCAMPO y GARZON,2137,-32.957909,-60.705052,OCHAVA SO
7904,MARTINEZ ESTRADA y PJE. PEATONAL,7904,-32.911099,-60.731748,OCHAVA NE
7156,WASHINGTON y RONDEAU,7156,-32.901355,-60.690621,OCHAVA SO
4864,L. N. ALEM y OCAMPO,4864,-32.968126,-60.633402,OCHAVA NO
2165,ROSARIO (Ibarlucea) y URQUIZA (Ibarlucea),2165,-32.850476,-60.791775,OCHAVA NO
6335,CULLEN Y UGARTE y VEDIA,6335,-32.877534432,-60.717325853,OCHAVA SO
6054,ABORIG. ARGENTINOS y CALLE 1816,6054,-32.98119,-60.707954,OCHAVA NE
1909,SAN MARTIN y URIBURU,1909,-32.9908,-60.646598,OCHAVA SE
4575,CHACABUCO y DEAN FUNES,4575,-32.978277,-60.630222,OCHAVA NO
7856,CARRIEGO y MENDOZA,7856,-32.942592,-60.689865,OCHAVA SE
9693,C. ALDAO y GALVEZ,9693,-32.960055,-60.695115,OCHAVA SE
5595,26 DE AGOSTO y YAPEYU,5595,-32.874226,-60.700914,OCHAVA NE
2867,AYOLAS y NECOCHEA,2867,-32.979332,-60.631925,OCHAVA SO
4803,DORREGO y AMENABAR,4803,-32.970108,-60.655794,OCHAVA NO
8266,GORRITI y SANTA MARIA DE ORO,8266,-32.923382,-60.67371,OCHAVA SO
4368,GABOTO y DORREGO,4368,-32.971295,-60.655883,OCHAVA NE
5650,JUAN M. DE ROSAS y URIBURU,5650,-32.990376,-60.64215,OCHAVA NO
4315,ITALIA y CENTENO,4315,-32.983171,-60.657468,OCHAVA SE
9616,AYACUCHO y EST. DE ISRAEL,9616,-32.991393,-60.637035,OCHAVA NO
3999,OVIDIO LAGOS y CALLE 513,3999,-33.023906,-60.680264,OCHAVA SE
2643,PROVINCIAS UNIDAS y COCHABAMBA,2643,-32.949852,-60.712027,OCHAVA SE
6884,GRAL. PAZ (Funes) y H. YRIGOYEN (Funes),6884,-32.91489,-60.809468,OCHAVA SO
5099,CORRIENTES y TUCUMAN,5099,-32.941103,-60.641142,OCHAVA SE
2114,LINIERS y AMENABAR,2114,-32.963677,-60.697571,OCHAVA SE
2971,FLOR DE NACAR y ESTRELLA FEDERAL,2971,-33.020543,-60.660331,OCHAVA SE
3304,ALVAREZ CONDARCO y PARRAVICINI,3304,-32.931691978,-60.756909049,OCHAVA O
9750,ORSETTI (Baigorria) y ITUZAINGO (Baigorria),9750,-32.865271842,-60.711469755,OCHAVA NE
2176,ROSARIO (Ibarlucea) y 25 DE MAYO (Ibarlucea),2176,-32.853334,-60.786871,OCHAVA NO
5119,MENDOZA y SUIPACHA,5119,-32.946955,-60.665566,OCHAVA SO
4008,EVA PERON y MAGALLANES,4008,-32.934567,-60.704908,OCHAVA SO
3774,URIBURU y MITRE,3774,-32.990939,-60.650888,OCHAVA SO
5118,RUEDA y PTE. ROCA,5118,-32.969737,-60.651202,OCHAVA NE
4332,JOAQUIN SUAREZ y PAUNERO,4332,-32.890989,-60.725535,OCHAVA NE
4446,CALLE 2019 y AVELLANEDA,4446,-33.006449844,-60.688256782,OCHAVA S
9199,JUAN B. JUSTO y JUAN PABLO II,9199,-32.915224,-60.722745,OCHAVA S
8618,J. J. PASO y ALVAREZ JONTE,8618,-32.919536,-60.687644,OCHAVA SO
5822,SCHWEITZER y JOSE COLOMBRES,5822,-32.913536,-60.730438,OCHAVA NE
3951,PACHECO y CONFEDERACION,3951,-32.908607,-60.692836,OCHAVA SE
9073,GRAL. PAZ (Funes) y ANGELOME (Funes),9073,-32.91468,-60.810674,OCHAVA SO
7218,SAN LUIS y JUAN M. DE ROSAS,7218,-32.95031,-60.631943,OCHAVA SO
2138,27 DE FEBRERO y CAFFERATA,2138,-32.961592,-60.676166,OCHAVA NE
9208,ONCATIVO y PAUNERO,9208,-32.880759,-60.725897,OCHAVA SO
9502,SAN MARTIN y BIEDMA,9502,-32.98186,-60.644666,OCHAVA SE
3794,ENTRE RIOS y DR. F. RIVA,3794,-32.983067,-60.650408,OCHAVA NO
1962,FRANCIA y PELLEGRINI,1962,-32.952573,-60.668112,OCHAVA SE
1528,EVA PERON y ROUILLON,1528,-32.934802,-60.702275,OCHAVA NE
1919,RONDEAU y GOYENA,1919,-32.876347,-60.69823,OCHAVA NO
8956,H. PUJATO y LOS ALERCES,8956,-32.906252,-60.730069,OCHAVA SO
2787,ROUILLON y J. DE GARAY,2787,-32.966069,-60.701081,OCHAVA SE
6494,RUTA NAC. 9 (Funes) y LOS TIZONES (Funes),6494,-32.915568271,-60.84878889,OCHAVA NE
4792,MATIENZO y VIRASORO,4792,-32.961028,-60.693984,OCHAVA NO
2712,AMENABAR y DORREGO,2712,-32.970271,-60.655833,OCHAVA SO
1450,27 DE FEBRERO y OROÑO,1450,-32.964734,-60.65835,OCHAVA NE
4335,FRANCIA y AMENABAR,4335,-32.967177,-60.672188,OCHAVA NO
1475,RONDEAU y NANSEN,1475,-32.909388,-60.687607,OCHAVA SE
8279,GENOVA y GARZON,8279,-32.915876,-60.70641,OCHAVA SO
4301,CENTENARIO y PAVON,4301,-33.003697,-60.634087,OCHAVA NE
8696,BUENOS AIRES y SAN LUIS,8696,-32.950052,-60.633324,OCHAVA SE
8090,IRIONDO y SAN JUAN,8090,-32.94462,-60.670466,OCHAVA SE
6584,ILLIA (Funes) y ÑANDU (Funes),6584,-32.928389,-60.796735,OCHAVA NE
4882,GALVEZ y CORRIENTES,4882,-32.96793,-60.647857,OCHAVA NE
1738,SAN LUIS y VALPARAISO,1738,-32.941264,-60.682607,OCHAVA SO
5954,CORRIENTES y PELLEGRINI,5954,-32.956815,-60.645057,OCHAVA SE
4410,MOLINA y PERDRIEL,4410,-32.894707,-60.704614,OCHAVA SE
6174,FRANCIA y LAMADRID,6174,-32.998101,-60.677708,OCHAVA SE
8669,JOAQUIN SUAREZ y MATHEU,8669,-32.889036,-60.728732,OCHAVA NE
1148,AYALA GAUNA y SANCHEZ DE LORIA,1148,-32.912541,-60.73302,OCHAVA SO
5443,C. SAAVEDRA y MITRE,5443,-32.977616,-60.647351,OCHAVA NE
6261,JUNIN y C. ALDAO,6261,-32.927045,-60.696376,OCHAVA NE
2402,COPACABANA y BIARRITZ,2402,-33.028167,-60.684289,OCHAVA NE
4914,GRAL. PAZ (Funes) y PTE. PERON (Funes),4914,-32.915344,-60.806976,OCHAVA SO
1851,EVA PERON y OLMOS,1851,-32.927062,-60.745334,OCHAVA SO
4345,JUNIN y ALBERDI,4345,-32.926668,-60.676695,OCHAVA SO
8077,CALDERON y ROBLES,8077,-32.880147,-60.731286,OCHAVA SE
7593,SUIPACHA y RIOJA,7593,-32.942818,-60.664521,OCHAVA NO
8530,SOLIS y NAVARRO,8530,-32.931324,-60.703691,OCHAVA SE
8661,ROUILLON y C. SAAVEDRA,8661,-32.969564,-60.700946,OCHAVA SE
9353,BIEDMA y CALLAO,9353,-32.977508,-60.669011,OCHAVA SO
6515,AVELLANEDA y ITUZAINGO,6515,-32.953266,-60.682889,OCHAVA NO
6554,CORDOBA y OVIDIO LAGOS,6554,-32.942292,-60.661669,OCHAVA SO
2228,RUTA NAC. 9 (Funes) y MITRE (Funes),2228,-32.922919,-60.800502,OCHAVA NE
9017,AYACUCHO y LAINEZ,9017,-33.004941,-60.635821,OCHAVA NO
4108,SANTIAGO y CORDOBA,4108,-32.943137,-60.65608,OCHAVA NO
9759,J. GRANEL y SOMOZA,9759,-32.891312,-60.722611,OCHAVA SE
9063,JUAN M. DE ROSAS y J. DE GARAY,9063,-32.975606,-60.638431,OCHAVA NO
2744,ONCATIVO y N. LAGUNA,2744,-32.880684,-60.724514,OCHAVA SO
9059,SALTA y ITALIA,9059,-32.937742,-60.646216,OCHAVA SO
9792,PTE. ROCA y SAN LUIS,9792,-32.947852,-60.645721,OCHAVA SE
6535,SAN MARTIN y DEAN FUNES,6535,-32.975792,-60.644143,OCHAVA NO
3972,BATLLE Y ORDOÑEZ y CORRIENTES,3972,-33.00908,-60.653132,OCHAVA SO
1748,JUNIN y FRANCIA,1748,-32.926531,-60.661947,OCHAVA SO
5410,URIBURU y AYACUCHO,5410,-32.990501,-60.637075,OCHAVA SO
9094,LIMITE MUNICIPIO y URUGUAY,9094,-32.96906,-60.733618,OCHAVA NO
7664,GURRUCHAGA y IGNACIO WARNES,7664,-32.905325,-60.690577,OCHAVA NE
5466,C. ALDAO y VELEZ SARSFIELD,5466,-32.925614,-60.696431,OCHAVA SE
6428,VIRASORO y PARAGUAY,6428,-32.968965,-60.649763,OCHAVA SO
4097,SAN LUIS y CALLAO,4097,-32.945168,-60.660854,OCHAVA SO
9857,J D PERON (VGG) y GRAL. LAVALLE (VGG),9857,-33.007824,-60.614151,OCHAVA NO
5976,DONADO y URQUIZA,5976,-32.933899,-60.727177,OCHAVA SE
4109,SAN MARTIN (VGG) y EVA PERON (VGG),4109,-33.026843,-60.622858,OCHAVA SE
9788,EST. DE ISRAEL y CORRIENTES,9788,-32.991883,-60.653608,OCHAVA NE
9193,ARIJON y VERA MUJICA,9193,-33.003833,-60.678991,OCHAVA NE
4253,LAVALLE y RIOJA,4253,-32.940617131,-60.677988426,OCHAVA SE
9771,JOSE COLOMBRES y APIPE,9771,-32.92005,-60.730381,OCHAVA NO
3320,ENTRE RIOS y BIEDMA,3320,-32.980771,-60.649826,OCHAVA NO
9648,JUNIN y FRAGA,9648,-32.927428,-60.710707,OCHAVA NE
6365,PTE. PERON y VALPARAISO,6365,-32.957788,-60.686592,OCHAVA NE
2507,FRANCIA y CAZADORES,2507,-33.00498,-60.677674,OCHAVA E
9700,ARIJON y AYACUCHO,9700,-33.002727,-60.636193,OCHAVA SO
3848,VERA MUJICA y MONTEVIDEO,3848,-32.951097,-60.66926,OCHAVA SE
8948,JOSE M. ROSA y H. PUJATO,8948,-32.90587,-60.725898,OCHAVA SO
3247,AYACUCHO y J. M. GUTIERREZ,3247,-32.993703,-60.63663,OCHAVA SE
6114,OVIDIO LAGOS y DE LOS QUINTEROS,6114,-33.015689,-60.678893,OCHAVA NO
2516,OVIDIO LAGOS y 5 DE AGOSTO,2516,-33.017733,-60.678953,OCHAVA E
9109,CALLAO (Baigorria) y LAS HERAS (Baigorria),9109,-32.863779738,-60.722043872,OCHAVA NO
8262,VIRASORO y DORREGO,8262,-32.967976,-60.655256,OCHAVA SO
5771,MENDOZA y MITRE,5771,-32.951304,-60.640899,OCHAVA SO
7030,3 DE FEBRERO y SUIPACHA,7030,-32.948064,-60.665656,OCHAVA NE
1584,TARRAGONA y AYALA GAUNA,1584,-32.912599,-60.735178,OCHAVA SE
5892,PROVINCIAS UNIDAS y VIAMONTE,5892,-32.956797,-60.712081,OCHAVA NO
4152,MAIPU y LA PAZ,4152,-32.964749,-60.639791,OCHAVA SE
6939,VIRASORO y MORENO,6939,-32.967733,-60.656604,OCHAVA SO
1654,MERCANTE y NANSEN,1654,-32.909128,-60.684477,OCHAVA NO
7516,SANTA FE y OVIDIO LAGOS,7516,-32.940846,-60.660993,OCHAVA NE
8336,WILDE y TUCUMAN,8336,-32.933219,-60.738877,OCHAVA NO
6064,OROÑO y BIEDMA,6064,-32.978774,-60.661939,OCHAVA SE
1839,PTE. PERON y CONSTITUCION,1839,-32.956772,-60.677797,OCHAVA NE
2340,SUPERI y MEDRANO,2340,-32.896246,-60.701358,OCHAVA SO
9975,MAGALDI y BETINOTTI,9975,-32.936563,-60.740371,OCHAVA NE
8273,MORROW y CALLE 13124,8273,-32.876654,-60.735462,OCHAVA SE
3189,BAIGORRIA y IGNACIO WARNES,3189,-32.891764,-60.694681,OCHAVA NE
6627,SANTA FE y BALCARCE,6627,-32.942548,-60.651516,OCHAVA NE
9978,C. COLON y COCHABAMBA,9978,-32.960592,-60.628613,OCHAVA NO
7655,SEGUI y ENTRE RIOS,7655,-32.978425,-60.64904,OCHAVA NE
6100,JUAN PABLO II y MONT CENIS,6100,-32.873394366,-60.700180639,OCHAVA SO
7281,BUENOS AIRES y PASCO,7281,-32.960637,-60.635923,OCHAVA SE
4899,ARIJON y MARCELO ALVEAR,4899,-33.002282,-60.623722,OCHAVA S
1175,MENDOZA y PRIMERO DE MAYO,1175,-32.953026,-60.631077,OCHAVA SO
2878,J. CURA y MARTIN RODRIGUEZ,2878,-32.970366,-60.665794,OCHAVA SO
1377,RONDEAU y CONGRESO,1377,-32.910817,-60.687163,OCHAVA SE
4276,SARMIENTO y VIAMONTE,4276,-32.965221,-60.642972,OCHAVA NO
7550,S. DE THOMPSON y LORENZINI,7550,-32.992487,-60.629689,OCHAVA NE
9647,AVELLANEDA y LA PAZ,9647,-32.956703,-60.683758,OCHAVA NO
4598,SALTA y ESPAÑA,4598,-32.937995,-60.644848,OCHAVA SO
3221,WASHINGTON y MEDRANO,3221,-32.903213,-60.699217,OCHAVA SO
4652,SALTA y SANTIAGO,4652,-32.93632,-60.654359,OCHAVA SO
4038,CALLE 1379 y ONCATIVO,4038,-32.880375759,-60.717681763,OCHAVA SE
2954,BAIGORRIA y BRASILIA,2954,-32.893754,-60.714414,OCHAVA NE
9567,SEGUI y J. DE CASAL,9567,-32.97047,-60.697561,OCHAVA N
5457,BAIGORRIA y CAMBAY,5457,-32.893613,-60.70991,OCHAVA NE
6395,SAN LORENZO y LIMA,6395,-32.936128,-60.682733,OCHAVA SO
6486,EVA PERON y WILDE,6486,-32.928341,-60.739318,OCHAVA SO
6125,MENDOZA y P. L. FUNES,6125,-32.940531,-60.701298,OCHAVA SO
6105,SEGUI y F. MORE,6105,-32.970334,-60.692488,OCHAVA NE
5903,MOSCONI y HUEMUL,5903,-32.983731,-60.682893,OCHAVA SO
3725,URIBURU y MARTIN RODRIGUEZ,3725,-32.991297,-60.6709,OCHAVA NE
7999,ANCHORENA y GRAL. PAZ,7999,-32.997042,-60.627262,OCHAVA NE
4151,GABOTO y ESMERALDA,4151,-32.976257,-60.628103,OCHAVA NE
2081,BATLLE Y ORDOÑEZ y MELIAN,2081,-33.009272,-60.659481,OCHAVA SO
9748,CALLAO y 3 DE FEBRERO,9748,-32.948949,-60.661619,OCHAVA SE
7665,JUAN M. DE ROSAS y SEGUI,7665,-32.980133,-60.639554,OCHAVA NO
4451,SEGUI y ALSINA,4451,-32.972074,-60.684525,OCHAVA NE
8342,PALESTINA y DE LOS GRANADEROS,8342,-32.88592,-60.709946,OCHAVA NE
8334,SALTA y MORENO,8334,-32.937264,-60.648926,OCHAVA SO
3670,ANDRADE y MARTIN RODRIGUEZ,3670,-32.99647,-60.67056,OCHAVA NE
1876,OROÑO y ARIJON,1876,-33.003583,-60.664672,OCHAVA SE
1754,EVA PERON y D. CULLEN,1754,-32.933527,-60.709342,OCHAVA NE
9468,J D PERON (VGG) y LAPRIDA (VGG),9468,-33.024131791,-60.623751369,OCHAVA NO
9687,GALVEZ y CARLOS M. ALVEAR,9687,-32.965738,-60.660179,OCHAVA NE
3837,JOAQUIN SUAREZ y GAZCON,3837,-32.88989,-60.727676,OCHAVA NO
9907,CAFFERATA y SAN LORENZO,9907,-32.93817,-60.670455,OCHAVA NO
9800,PROVINCIAS UNIDAS y 27 DE FEBRERO,9800,-32.959193,-60.711989,OCHAVA NO
3389,MENDOZA y AMUCHASTEGUI,3389,-32.940253,-60.732586,OCHAVA SO
9173,OVIDIO LAGOS y NTRA. SRA. ROSARIO,9173,-33.00081,-60.675718,OCHAVA NO
5038,ILLIA (Funes) y GALINDO (Funes),5038,-32.929568,-60.820086,OCHAVA SO
7891,J. M. GUTIERREZ y ENTRE RIOS,7891,-32.99402,-60.652097,OCHAVA NE
7800,SAN DIEGO (VGG) y INTENDENTE ANDREU (VGG),7800,-33.018667,-60.611354,OCHAVA NE
3886,TARRAGONA y GENOVA,3886,-32.916673,-60.735034,OCHAVA SE
9638,CAFFERATA y MENDOZA,9638,-32.945581,-60.672327,OCHAVA NO
1847,MENDOZA y ALSINA,1847,-32.944762,-60.677803,OCHAVA SO
7707,BUENOS AIRES y CERRITO,7707,-32.962933,-60.636498,OCHAVA SE
4580,RONDEAU y GURRUCHAGA,4580,-32.905097,-60.688919,OCHAVA SE
2676,CEIBO y PARAGUAY,2676,-33.013568,-60.654329,OCHAVA SO
5432,GENOVA y SARRATEA,5432,-32.916757498,-60.741441822,OCHAVA NE
5918,CATAMARCA (Baigorria) y ROSARIO (Baigorria),5918,-32.860086778,-60.69897042,OCHAVA NO
5587,LITUANIA y J. CHAPO,5587,-32.999461,-60.620973,OCHAVA SE
1974,PELLEGRINI y D. CRESPO,1974,-32.952035,-60.671104,OCHAVA SO
3435,UNION y PALESTINA,3435,-32.885749,-60.704775,OCHAVA NO
7775,MITRE (VGG) y OPICCI (VGG),7775,-33.024494,-60.634447,OCHAVA NE
2034,SAN NICOLAS y CENTENO,2034,-32.978803,-60.681967,OCHAVA SE
2076,WILDE y SAN LORENZO,2076,-32.935505,-60.738564,OCHAVA SE
5997,GENOVA y GARCIA DEL COSSIO,5997,-32.916858254,-60.746612594,OCHAVA NE
9142,A. SABIN y OLIVE,9142,-32.913095,-60.692025,OCHAVA O
8259,RIOBAMBA y BUENOS AIRES,8259,-32.963934,-60.636749,OCHAVA NE
1570,MENDOZA y AVELLANEDA,1570,-32.944257,-60.680612,OCHAVA SO
8402,SAN LUIS y D. CRESPO,8402,-32.943709,-60.669011,OCHAVA SO
2742,ARIJON y PTE. ROCA,2742,-33.003329,-60.656244,OCHAVA SO
7458,NECOCHEA y 3 DE FEBRERO,7458,-32.955199,-60.625731,OCHAVA SE
2884,ARIJON y DORREGO,2884,-33.00346,-60.660597,OCHAVA SO
7092,ENTRE RIOS y CATAMARCA,7092,-32.940067,-60.639551,OCHAVA NO
4092,CORRIENTES (Baigorria) y SAN JORGE (Baigorria),4092,-32.864156036,-60.700149677,OCHAVA SE
2442,J. J. PASO y JOSE M. ROSA,2442,-32.92067,-60.72462,OCHAVA SO
5020,RUTA 11 (Baigorria) y CIUDADELA (Baigorria),5020,-32.870955736,-60.699774681,OCHAVA NO
6424,OVIDIO LAGOS y NUEVA C. A SOLDINI,6424,-33.020893,-60.680074,OCHAVA NO
5782,JUAN M. DE ROSAS y COCHABAMBA,5782,-32.959567,-60.634364,OCHAVA NO
5433,SANTA FE y DORREGO,5433,-32.943079,-60.648542,OCHAVA NE
9795,DONADO y CHUBUT,9795,-32.946052,-60.726677,OCHAVA SE
7000,LAPRIDA y VIAMONTE,7000,-32.965919,-60.639057,OCHAVA NO
6897,R. RIVAROLA y MANUEL GONZALEZ,6897,-32.966308,-60.730799,OCHAVA NE
1009,RONDEAU y MACIEL,1009,-32.903834,-60.689292,OCHAVA SE
8757,SANTA FE y CAFFERATA,8757,-32.939161,-60.67037,OCHAVA NE
9769,PTE. PERON y LINIERS,9769,-32.961266,-60.697835,OCHAVA SO
6772,MENDOZA y GUTENBERG,6772,-32.942803,-60.688694,OCHAVA SO
8134,ARIJON y PJE. 2012,8134,-33.004344,-60.688172,OCHAVA SO
6972,MENDOZA y PTE. ROCA,6972,-32.950322,-60.646491,OCHAVA SO
8623,PTE. PERON (Funes) y PEDRO RIOS (Funes),8623,-32.917238,-60.807475,OCHAVA NO
4117,GABOTO y SARMIENTO,4117,-32.973276,-60.644811,OCHAVA NE
7446,GENOVA y LEGUIZAMON,7446,-32.914884,-60.677778,OCHAVA NE
6736,CALLAO (Baigorria) y LAS HERAS (Baigorria),6736,-32.863928495,-60.721768328,OCHAVA SE
6238,FRANCIA y J. MARC,6238,-32.993218,-60.678334,OCHAVA NO
1764,SAN LORENZO y MARTIN RODRIGUEZ,1764,-32.940521,-60.65826,OCHAVA SO
9364,ARIJON y MITRE,9364,-33.003156,-60.650422,OCHAVA SO
7912,27 DE FEBRERO y MATIENZO,7912,-32.958595,-60.693878,OCHAVA NE
3163,CERRITO y MEJICO,3163,-32.95357,-60.717929,OCHAVA SO
3317,PTE. PERON y C. ALDAO,3317,-32.959568,-60.695134,OCHAVA NE
7780,JUAN M. DE ROSAS y AYOLAS,7780,-32.977913,-60.639,OCHAVA NO
2439,PACHECO y 8 DE NOVIEMBRE,2439,-32.911179,-60.692047,OCHAVA SE
1025,RONDEAU y VALLE HERMOSO,1025,-32.885945,-60.695338,OCHAVA NO
1409,ALBERDI y GENOVA,1409,-32.915097,-60.685723,OCHAVA N
4436,GUEMES y CALLAO,4436,-32.931929,-60.657321,OCHAVA NE
5367,VELEZ SARSFIELD y COLOMBIA,5367,-32.926031,-60.716676,OCHAVA NE
9637,PELLEGRINI y CONSTITUCION,9637,-32.950784,-60.676288,OCHAVA NE
5800,FILIPPINI (VGG) y BALCARCE (VGG),5800,-33.0236,-60.63724,OCHAVA SE
8314,BUENOS AIRES (VGG) y SOLDADO AGUIRRE (VGG),8314,-33.029364,-60.638388,OCHAVA SE
6259,AYACUCHO y RUI BARBOSA,6259,-33.00585,-60.636061,OCHAVA NO
5189,J D PERON (VGG) y SAN MARTIN (VGG),5189,-33.025484421,-60.62479115,OCHAVA NO
7235,C. SILVA y ALMAFUERTE,7235,-32.917096,-60.679102,OCHAVA NO
2733,AVELLANEDA y AMENABAR,2733,-32.964955,-60.68548,OCHAVA SE
2857,CARRIEGO y SAN JUAN,2857,-32.941195,-60.689512,OCHAVA SE
1766,CENTEN. R. CENTRAL y GENOVA,1766,-32.914755,-60.6732,OCHAVA NO
6590,J. J. PASO y SOTOMAYOR,6590,-32.919642,-60.695206,OCHAVA NE
3159,WILDE y COMENIUS,3159,-32.926959,-60.73887,OCHAVA E
7201,Ab. GRANDOLI y SPIRO,7201,-32.985353,-60.628077,OCHAVA SE
3081,PROVINCIAS UNIDAS y FRENCH,3081,-32.92169,-60.713573,OCHAVA NO
4230,NICARAGUA y JUAN B. JUSTO,4230,-32.915185,-60.721292,OCHAVA SE
5193,SANTA FE y DORREGO,5193,-32.943059,-60.648654,OCHAVA NE
9096,LAMADRID y BERMUDEZ,9096,-32.99698,-60.642946,OCHAVA SO
6504,MENDOZA (17 DE OCTUBRE) (VGG) y ROQUE S. PE?A (VGG),6504,-33.017639785,-60.609059469,OCHAVA SE
5458,AMENABAR y MORENO,5458,-32.970025,-60.657178,OCHAVA SO
2241,ARIJON y BERMUDEZ,2241,-33.002923,-60.642695,OCHAVA SO
8512,DORREGO y URUGUAY,8512,-32.9747,-60.656951,OCHAVA NO
3482,27 DE FEBRERO y BARRA,3482,-32.959351,-60.706137,OCHAVA SO
8376,ENTRE RIOS y CERRITO,8376,-32.961281,-60.644909,OCHAVA NO
9493,PTE. QUINTANA y CAFFERATA,9493,-32.976612028,-60.679956287,OCHAVA NE
8143,GABOTO y CORRIENTES,8143,-32.972521,-60.649016,OCHAVA NE
5813,JOSE DE CALASANZ y GALLEGOS,5813,-32.9403,-60.747421,OCHAVA NE
2229,MORROW y CALLE 13124,2229,-32.876502,-60.735745,OCHAVA NO
6130,PROVINCIAS UNIDAS y F. ESQUIU,6130,-32.923194,-60.713195,OCHAVA SE
3188,BUENOS AIRES y R. ROSS,3188,-32.989294091,-60.64318324,OCHAVA SE
4690,JUAN M. DE ROSAS y RIOBAMBA,4690,-32.964154,-60.635515,OCHAVA NO
6759,CATAMARCA y OROÑO,6759,-32.937855,-60.651637,OCHAVA NE
8885,PAVLOV y L. VILA,8885,-32.900994,-60.704173,OCHAVA SE
2649,PUEYRREDON y ANDRADE,2649,-32.996595,-60.669293,OCHAVA SE
5479,JOSE M. ROSA y MARTINEZ ESTRADA,5479,-32.91087,-60.724927,OCHAVA O
7007,DECRETADA y SANTA FE,7007,-32.935189,-60.692453,OCHAVA NO
4844,SEGUI y PROVINCIAS UNIDAS,4844,-32.970916019,-60.71120412,OCHAVA NE
8181,JUNIN y LINIERS,8181,-32.927114,-60.698945,OCHAVA NE
7229,FRANCIA y CALLE 1209,7229,-32.996501,-60.678667,OCHAVA NO
9165,PARAGUAY y COCHABAMBA,9165,-32.957345,-60.64682,OCHAVA NO
5654,3 DE FEBRERO y PUEYRREDON,5654,-32.949285,-60.658863,OCHAVA NE
5935,MENDOZA y FRANCIA,5935,-32.946701,-60.667018,OCHAVA SO
7562,BUENOS AIRES y 9 DE JULIO,7562,-32.954942,-60.634538,OCHAVA SE
2102,SEGUI y SANTIAGO,2102,-32.976014,-60.664369,OCHAVA SO
6363,SAN NICOLÁS (VGG) y SIMON BOLIBAR (VGG),6363,-33.030576,-60.639748,OCHAVA SO
9934,ITUZAINGO (Baigorria) y PANCHO RAMIREZ (Baigorria),9934,-32.853632024,-60.715722367,OCHAVA NO
5165,FRANCIA y COULIN,5165,-32.9869,-60.676788,OCHAVA SE
1374,EVA PERON y MATIENZO,1374,-32.936366,-60.694937,OCHAVA SO
9680,A. RIVERO y PJE. 1870,9680,-32.974435,-60.699521,OCHAVA NE
4772,ALVAREZ THOMAS y WASHINGTON,4772,-32.900277,-60.685632,OCHAVA SE
3497,PROVINCIAS UNIDAS y ITUZAINGO,3497,-32.952105,-60.712261,OCHAVA NO
5211,SANTA FE y CORRIENTES,5211,-32.944278,-60.64193,OCHAVA NE
9104,OROÑO y GARIBALDI,9104,-32.983145,-60.66343,OCHAVA NO
5271,OVIDIO LAGOS y ITUZAINGO,5271,-32.956461,-60.665115,OCHAVA NO
6916,9 DE JULIO y S. BAYO,6916,-32.945575,-60.686544,OCHAVA SO
9409,DONADO y DELLAROLE,9409,-32.926568,-60.727422,OCHAVA SE
3198,BATLLE Y ORDOÑEZ y ESPAÑA,3198,-33.009208,-60.657374,OCHAVA SO
9740,PARAGUAY y GALVEZ,9740,-32.967647,-60.64943,OCHAVA NO
5967,AVELLANEDA y PELLEGRINI,5967,-32.949756,-60.682002,OCHAVA NO
9715,ITALIA y LA PAZ,9715,-32.962525,-60.65226,OCHAVA SE
1435,RONDEAU y LARRECHEA,1435,-32.896378,-60.692311,OCHAVA NO
3584,CASIANO CASAS y CALLE 1345,3584,-32.895218,-60.7157,OCHAVA O
9837,AYOLAS y Ab. GRANDOLI,9837,-32.980058,-60.627895,OCHAVA SO
9015,JUAN A. MAZA y CHICLANA,9015,-32.901676,-60.686537,OCHAVA NO
9033,OROÑO y GABOTO,9033,-32.970736,-60.659917,OCHAVA SE
2991,BIEDMA y D. CRESPO,2991,-32.976037,-60.677173,OCHAVA SO
3779,RUTA NAC. 9 (Funes) y LOS TORDOS (Funes),3779,-32.923449,-60.793756,OCHAVA SO
2382,PROVINCIAS UNIDAS y J. J. PASO,2382,-32.920667,-60.713292,OCHAVA SE
7677,JUAN B. JUSTO y GONZALEZ DEL SOLAR,7677,-32.915633,-60.737597,OCHAVA SO
9387,FRANCIA y LAMADRID,9387,-32.997799,-60.678179,OCHAVA NO
1252,FRANCIA y ING. ACEVEDO,1252,-32.984299,-60.676869,OCHAVA SE
6039,RIOBAMBA y C. COLON,6039,-32.965211,-60.629585,OCHAVA NE
4549,MITRE y PASCO,4549,-32.959426,-60.642775,OCHAVA SE
6277,CARBALLO y ALBERDI,6277,-32.922373,-60.68013,OCHAVA SO
5005,SANTA FE y CARLOS M. ALVEAR,5005,-32.942067,-60.6542,OCHAVA NE
6778,CARLOS M. ALVEAR y ZEBALLOS,6778,-32.952147,-60.656745,OCHAVA SE
1044,MENDOZA y BARRA,1044,-32.939917,-60.706738,OCHAVA NE
2786,ING. ACEVEDO y HUTCHINSON,2786,-32.984354,-60.678622,OCHAVA SO
2088,URIBURU y L. N. ALEM,2088,-32.990275,-60.638815,OCHAVA NE
4888,J D PERON (VGG) y LIBERTAD (VGG),4888,-33.020783,-60.620485,OCHAVA SE
2949,URIBURU y JUAN M. DE ROSAS,2949,-32.990365,-60.641942,OCHAVA NE
2592,FRANCIA y SABATTINI,2592,-32.985937,-60.676921,OCHAVA NO
1955,FRANCIA y CERRITO,1955,-32.957077,-60.66925,OCHAVA SE
9997,TEMPORELLI (VGG) y LINIERS (VGG),9997,-33.036207,-60.643633,OCHAVA SO
6845,VIAMONTE y SOLIS,6845,-32.956543,-60.702617,OCHAVA NE
3783,AYACUCHO y H. DE LA QUINTANA,3783,-33.000599,-60.636084,OCHAVA SE
8695,URIARTE y JOSE C. PAZ,8695,-32.898568,-60.688611,OCHAVA SO
1511,PTE. PERON y CAFFERATA,1511,-32.956737,-60.675136,OCHAVA SO
1929,EVA PERON y CUBA,1929,-32.935212,-60.701332,OCHAVA SO
8139,NEUQUEN y GUATEMALA,8139,-32.944647,-60.716975,OCHAVA NE
4543,C. COLON y VIRASORO,4543,-32.972055,-60.631513,OCHAVA NO
3629,PTE. PERON y C. ALDAO,3629,-32.960064,-60.695442,OCHAVA SO
2141,OVIDIO LAGOS y FRAGATA SARMIENTO,2141,-32.988639,-60.672897,OCHAVA NO
7929,Ab. GRANDOLI y ANDRADE,7929,-32.995165,-60.628912,OCHAVA NO
3983,ENTRE RIOS y GARIBALDI,3983,-32.98536,-60.650989,OCHAVA NO
2339,JUAN A. MAZA y AGUSTIN ALVAREZ,2339,-32.882855,-60.69047,OCHAVA NO
1569,PELLEGRINI y JUAN M. DE ROSAS,1569,-32.958649,-60.634134,OCHAVA SO
9654,LIMITE MUNICIPIO y SEGUI,9654,-32.97161,-60.734124,OCHAVA NO
1354,PELLEGRINI y F. MORE,1354,-32.94791,-60.693355,OCHAVA NE
2519,SARMIENTO y ITUZAINGO,2519,-32.960635,-60.641821,OCHAVA NO
6667,JOSE DE CALASANZ y GALLEGOS,6667,-32.940666,-60.747633,OCHAVA SO
2927,ALVAREZ CONDARCO y EVA PERON,2927,-32.926144,-60.756771,OCHAVA SE
7572,NECOCHEA y BIEDMA,7572,-32.983768,-60.633039,OCHAVA NO
8250,DR. F. RIVA y OMAR CARRASCO,8250,-32.979306,-60.672303,OCHAVA SO
6780,ZELAYA y CHICLANA,6780,-32.903331,-60.693454,OCHAVA SE
9895,MEDRANO y P. ARAOZ,9895,-32.890875,-60.702853,OCHAVA SE
7154,ILLIA (Funes) y JACARANDA (Funes),7154,-32.928389,-60.789717,OCHAVA SO
9852,J. J. PASO y GARCIA DEL COSSIO,9852,-32.921034,-60.746458,OCHAVA NE
4205,FALUCHO y CILVETI,4205,-32.925561,-60.670802,OCHAVA NO
2024,OROÑO y GARIBALDI,2024,-32.983362,-60.663106,OCHAVA SE
6685,C. ALDAO y RIOBAMBA,6685,-32.954146,-60.695344,OCHAVA SE
3866,27 DE FEBRERO y GARZON,3866,-32.959318,-60.704997,OCHAVA SO
9770,SANTIAGO y SAN LUIS,9770,-32.945748,-60.656739,OCHAVA NO
6568,SANTA FE y LINIERS,6568,-32.935234,-60.698652,OCHAVA NE
4427,RIOBAMBA y BOLIVIA,4427,-32.954462,-60.713151,OCHAVA NE
4491,PAVON y REGIMIENTO 11,4491,-32.998407,-60.634163,OCHAVA SE
5402,OMAR CARRASCO y GALVEZ,5402,-32.964435,-60.668361,OCHAVA SE
1790,CORRIENTES y SAN LUIS,1790,-32.94853,-60.642992,OCHAVA SE
2194,GENOVA y OLAVARRIA,2194,-32.915828,-60.704637,OCHAVA SO
1236,PTE. PERON y P. ROSAS,1236,-32.958295,-60.690985,OCHAVA NE
4352,FORMOSA y GABRIEL CARRASCO,4352,-32.920414,-60.691518,OCHAVA SE
3176,VELEZ SARSFIELD y BOLIVIA,3176,-32.926138,-60.71457,OCHAVA SO
4369,CERRITO y BERUTI,4369,-32.965137,-60.624174,OCHAVA SO
7646,MENDOZA y MEJICO,7646,-32.940238,-60.718334,OCHAVA NE
7768,CORRIENTES (Baigorria) y SARMIENTO (Baigorria),7768,-32.858811747,-60.700422532,OCHAVA SE
2944,CERESETO y GIACCONE,2944,-33.008698,-60.673506,OCHAVA SE
9626,GURRUCHAGA y ZELAYA,9626,-32.905775,-60.69271,OCHAVA NE
1133,PELLEGRINI y C. COLON,1133,-32.959674,-60.628383,OCHAVA SO
7085,RUTA NAC. 9 (Funes) y G. COCHET (Funes),7085,-32.922504,-60.806207,OCHAVA SO
2164,VILLA DEL PARQUE y B. LEVI,2164,-32.881447,-60.728483,OCHAVA NO
2128,PROVINCIAS UNIDAS y CASILDA,2128,-32.929388,-60.713278,OCHAVA NO
2855,DONADO y SAN LORENZO,2855,-32.934999,-60.727219,OCHAVA SE
6314,OROÑO y MADRE CABRINI,6314,-33.005525,-60.664589,OCHAVA SE
2938,RUTA NAC. 9 (Funes) y LAS CAMELIAS (Funes),2938,-32.923262,-60.796695,OCHAVA SO
3068,SORRENTO y INT. LAMAS,3068,-32.907361,-60.693937,OCHAVA SO
5273,SAN MARTIN y LAMADRID,5273,-32.997131,-60.647954,OCHAVA SE
3458,POLLEDO y CIUDADELA,3458,-32.892153,-60.720422,OCHAVA NO
2706,SUPERI y V. GOMEZ,2706,-32.895345,-60.697209,OCHAVA SO
9775,BELGRANO (Baigorria) y PUEYRREDON (Baigorria),9775,-32.864223898,-60.703338787,OCHAVA SO
3340,H. YRIGOYEN y V. GOMEZ,3340,-32.884488,-60.699227,OCHAVA NE
6287,RONDEAU y H. BUCHANAN,6287,-32.881482,-60.696103,OCHAVA SE
1903,1ERA. JUNTA y 27 DE FEBRERO,1903,-32.968334,-60.64069,OCHAVA SE
6585,GARCIA DEL COSSIO y J. INGENIEROS,6585,-32.91789179,-60.746801434,OCHAVA NO
8930,DORREGO y GALVEZ,8930,-32.966666,-60.654919,OCHAVA NO
2599,SAN MARTIN y CENTENARIO,2599,-33.004326,-60.649509,OCHAVA SE
6270,FILIPPINI (VGG) y GUIDO Y SPANO (VGG),6270,-33.022222,-60.637272,OCHAVA NO
4815,J. J. PASO y VENEZUELA,4815,-32.920462,-60.725298,OCHAVA NE
5263,CORRIENTES y OCAMPO,5263,-32.965798,-60.647311,OCHAVA SE
3061,9 DE JULIO y SUCRE,3061,-32.944595,-60.69199,OCHAVA SO
9568,OLAVARRIA y J. INGENIEROS,9568,-32.916905,-60.704424,OCHAVA SE
6182,SANTA FE y ENTRE RIOS,6182,-32.944532,-60.64047,OCHAVA NE
2371,BUENOS AIRES y CENTENO,2371,-32.985881,-60.642289,OCHAVA SE
7553,DORREGO y JUJUY,7553,-32.936198,-60.647216,OCHAVA NO
3767,HUMBERTO PRIMERO y CARRIEGO,3767,-32.929891,-60.687536,OCHAVA SO
8440,PROVINCIAS UNIDAS y CERRITO,8440,-32.953242,-60.712217,OCHAVA NO
1444,FRANCIA y ZEBALLOS,1444,-32.949989,-60.667849,OCHAVA NO
1041,PELLEGRINI y CARLOS M. ALVEAR,1041,-32.954203,-60.657264,OCHAVA NE
2180,SALVAT y V. GOMEZ,2180,-32.882458,-60.699579,OCHAVA SO
7509,L. N. ALEM y LA PAZ,7509,-32.965832,-60.632825,OCHAVA NO
7710,URIBURU y CALLAO,7710,-32.991613644,-60.67248593,OCHAVA SO
6132,CANGALLO y HARDING,6132,-32.928714,-60.67751,OCHAVA SE
2142,FRANCIA y FRAGATA SARMIENTO,2142,-32.987821,-60.677402,OCHAVA NO
1279,SARRATEA y J. J. PASO,1279,-32.921114,-60.74119,OCHAVA SE
6193,SAN MARTIN y AZARA,6193,-32.992925,-60.647054,OCHAVA SE
6868,PTE. PERON y IRIONDO,6868,-32.956568,-60.673671,OCHAVA SO
5233,BATLLE Y ORDOÑEZ y ENTRE RIOS,5233,-33.008804,-60.65147,OCHAVA NE
2780,SEGUI y OROÑO,2780,-32.976486,-60.661737,OCHAVA SO
5033,ITALIA y GALVEZ,5033,-32.967101,-60.653421,OCHAVA SE
1379,SANTA FE y C. ALDAO,1379,-32.935165,-60.696082,OCHAVA NE
4339,ORSETTI (Baigorria) y LINIERS (Baigorria),4339,-32.865351451,-60.71304472,OCHAVA NE
6253,LAMADRID y SAN MARTIN,6253,-32.997134,-60.648238,OCHAVA SO
3554,SEGUI y MORENO,3554,-32.976715,-60.658674,OCHAVA NE
4629,OVIDIO LAGOS y CALLE 2101,4629,-33.011696,-60.677989,OCHAVA NO
5133,SAN JUAN y SANTIAGO,5133,-32.946901,-60.656841,OCHAVA NE
3417,FRANCIA y CENTENO,3417,-32.980011,-60.675045,OCHAVA SE
2373,BLOMBERG y JOSE M. ROSA,2373,-32.891156,-60.718776,OCHAVA NO
9308,REAL y ECHENIQUE,9308,-32.91817,-60.762908,OCHAVA NE
5050,GARCIA DEL COSSIO y 20 DE NOVIEMBRE,5050,-32.903746714,-60.747160109,OCHAVA E
2520,SEGUI y ESPINILLO,2520,-32.970828,-60.699233,OCHAVA SO
3386,JUNIN y FRAGA,3386,-32.927595,-60.710887,OCHAVA SO
5767,GARZON y G. DEMESTRI,5767,-32.972476,-60.704306,OCHAVA SE
9518,C. ALDAO y GORRITI,9518,-32.923969,-60.696494,OCHAVA SE
4476,ROUILLON y DR. MARADONA,4476,-32.979525,-60.700898,OCHAVA NO
8200,ROUILLON y LA PAZ,8200,-32.955352,-60.701815,OCHAVA NO
9505,SAN LUIS y MARCELO ALVEAR,9505,-32.946145,-60.655419,OCHAVA SO
2868,Ab. GRANDOLI y J. M. GUTIERREZ,2868,-32.993438,-60.628542,OCHAVA SE
9796,CATAMARCA (Baigorria) y SARMIENTO (Baigorria),9796,-32.858598737,-60.699035075,OCHAVA NO
1898,VIRASORO y ENTRE RIOS,1898,-32.969463,-60.646985,OCHAVA SO
2386,MONTEVIDEO y FRAGA,2386,-32.947463,-60.710018,OCHAVA SO
3464,OVIDIO LAGOS y BIEDMA,3464,-32.977361,-60.669783,OCHAVA SE
1746,FRANCIA y 27 DE FEBRERO,1746,-32.962889,-60.670719,OCHAVA SE
9886,SEGUI y SUIPACHA,9886,-32.974274,-60.672283,OCHAVA NE
7566,PROVINCIAS UNIDAS y WHITE,7566,-32.941305,-60.712717,OCHAVA NO
5952,FRANCIA y SALTA,5952,-32.934418,-60.663916,OCHAVA NO
1551,27 DE FEBRERO y DORREGO,1551,-32.965487,-60.65442,OCHAVA NE
7519,J. J. PASO y NICARAGUA,7519,-32.920309,-60.721085,OCHAVA NE
2139,JUAN B. JUSTO y MEJICO,2139,-32.91499,-60.719417,OCHAVA NE
9488,ITALIA y ANCHORENA,9488,-32.998128147,-60.659307139,OCHAVA SE
5743,OROÑO y VIRASORO,5743,-32.967079,-60.659383,OCHAVA NO
6052,CORRIENTES y MONTEVIDEO,6052,-32.955571,-60.644769,OCHAVA SE
3852,A. SABIN y GENOVA,3852,-32.91529,-60.692036,OCHAVA NO
4216,ARIJON y CERESETO,4216,-33.003671,-60.67372,OCHAVA NE
5284,REAL y SALADILLO,5284,-32.918877,-60.765025,OCHAVA NE
2663,OVIDIO LAGOS y J. MARC,2663,-32.993174,-60.673988,OCHAVA NO
6324,PROVINCIAS UNIDAS y SAN LORENZO,6324,-32.934445,-60.713079,OCHAVA NO
4684,JUAN B. JUSTO y BOLIVIA,4684,-32.914889,-60.715656,OCHAVA NE
2997,J. INGENIEROS y LEGUIZAMON,2997,-32.916123,-60.677878,OCHAVA SO
1703,PELLEGRINI y CAFFERATA,1703,-32.951273,-60.673568,OCHAVA NE
2337,LAMADRID y MORENO,2337,-32.997617,-60.662254,OCHAVA SO
6676,MONTEVIDEO y AYACUCHO,6676,-32.958188,-60.629429,OCHAVA SO
6988,MENDOZA y OROÑO,6988,-32.948893,-60.654786,OCHAVA SO
2695,SUPERI y DARREGUEIRA,2695,-32.894884,-60.695065,OCHAVA SO
4029,SAN NICOLAS y RIOJA,4029,-32.941545,-60.672532,OCHAVA SE
1861,RONDEAU y OLIVE,1861,-32.913009,-60.687066,OCHAVA NO
9653,ITUZAINGO (Baigorria) y CATRIEL (Baigorria),9653,-32.855366099,-60.715230654,OCHAVA NO
3869,SALVAT y MEDRANO,3869,-32.882652,-60.703844,OCHAVA SO
6596,EVA PERON (Baigorria) y MAIPO (Baigorria),6596,-32.858591731,-60.717226686,OCHAVA SO
2514,JUAN B. JUSTO y BOLIVIA,2514,-32.915038,-60.715822,OCHAVA SO
3450,CERRITO y MATIENZO,3450,-32.952923,-60.694297,OCHAVA SO
5519,L. N. ALEM y GALVEZ,5519,-32.97041,-60.634,OCHAVA NO
4697,BATLLE Y ORDOÑEZ y CALLE 2104,4697,-33.009857,-60.683781,OCHAVA NE
3504,URIBURU y CALLAO,3504,-32.991344,-60.672335,OCHAVA NE
6476,ORSETTI (Baigorria) y ITUZAINGO (Baigorria),6476,-32.865395081,-60.711650683,OCHAVA SO
7653,SAN LUIS y BUENOS AIRES,7653,-32.950032,-60.633433,OCHAVA SO
2436,SPEGAZZINI y GOYENA,2436,-32.877252,-60.702522,OCHAVA NO
1987,SAN MARTIN y DEAN FUNES,1987,-32.976001,-60.643909,OCHAVA SE
8807,DORREGO y C. SAAVEDRA,8807,-32.975845,-60.657232,OCHAVA NO
1165,SAN LUIS y SAN MARTIN,1165,-32.949281,-60.637776,OCHAVA SO
7410,PUEYRREDON y H. DE LA QUINTANA,7410,-33.001706,-60.6691,OCHAVA SE
4310,5 DE AGOSTO y MELIAN,4310,-33.016970473,-60.658862129,OCHAVA NE
9064,LAMADRID y PJE. 2024,9064,-32.998417,-60.688376,OCHAVA SO
8720,ESPAÑA y SANTA FE,8720,-32.943487,-60.646248,OCHAVA NO
8892,FRANCIA y CERRITO,8892,-32.956859,-60.669574,OCHAVA NO
5353,G. BROWN y MORENO,5353,-32.934932,-60.648316,OCHAVA SO
6562,ARIJON y CASTRO BARROS,6562,-33.002524,-60.629527,OCHAVA S
2491,SAN LORENZO y SUCRE,2491,-32.934904,-60.689538,OCHAVA SO
6799,ESPAÑA y CENTENO,6799,-32.983222,-60.656253,OCHAVA NO
1524,ALBERDI y JUNIN,1524,-32.926501,-60.67662,OCHAVA N
7056,A. SABIN y CASILDA,7056,-32.928186,-60.677532,OCHAVA SE
6581,F. GRANDOLI y GAZCON,6581,-32.886936802,-60.727283906,OCHAVA NE
5074,CORRIENTES y CORDOBA,5074,-32.945732,-60.642306,OCHAVA SE
6553,JUAN A. MAZA y MARULL,6553,-32.905339,-60.685422,OCHAVA NO
4640,SAN DIEGO (VGG) y ALVEAR (VGG),4640,-33.01858,-60.611354,OCHAVA NE
5534,LITUANIA y ORIBE,5534,-33.001401,-60.622153,OCHAVA SE
6240,PARAGUAY y URQUIZA,6240,-32.941884,-60.642917,OCHAVA NO
5938,BALCARCE y S. DE BUSTAMANTE,5938,-33.002376,-60.663463,OCHAVA NO
5109,L. N. ALEM y CERRITO,5109,-32.963539,-60.632249,OCHAVA NO
3358,C. ALDAO y A. RIVERO,3358,-32.974307,-60.69479,OCHAVA NO
1137,PELLEGRINI y PROVINCIAS UNIDAS,1137,-32.948414,-60.712089,OCHAVA NE
7332,R. RIVAROLA y R. DEL SALVADOR,7332,-32.965657,-60.712773,OCHAVA NE
3630,CALLE 1716 y CALLE 1739,3630,-32.955468641,-60.726651637,OCHAVA SE
8068,AYACUCHO y AYOLAS,8068,-32.978785,-60.63502,OCHAVA SE
9819,L. N. ALEM y PELLEGRINI,9819,-32.958876,-60.631079,OCHAVA NO
8532,ALVAREZ THOMAS y CASTAGNINO,8532,-32.896304,-60.686826,OCHAVA SE
6798,27 DE FEBRERO y NICARAGUA,6798,-32.959403,-60.71982,OCHAVA NE
9628,BERNHEIM y EZEIZA,9628,-32.935767,-60.742225,OCHAVA NE
6231,TUCUMAN y SANTIAGO,6231,-32.938655,-60.654948,OCHAVA SO
4011,MATIENZO y VELEZ SARSFIELD,4011,-32.92542,-60.695345,OCHAVA NO
1786,EVA PERON y ECUADOR,1786,-32.932659,-60.715482,OCHAVA SO
6378,CATAMARCA y BALCARCE,6378,-32.938085,-60.650382,OCHAVA NE
6206,ILLIA (Funes) y LOS PUMAS (Funes),6206,-32.928918,-60.799645,OCHAVA SO
5364,GARCIA DEL COSSIO y PACTO FEDERAL,5364,-32.902491223,-60.747445334,OCHAVA NO
6795,TEMPORELLI (VGG) y CAFFERATA (VGG),6795,-33.034827,-60.640956,OCHAVA SO
5958,C. ALDAO y JUNIN,5958,-32.926889,-60.696382,OCHAVA E
3373,LAPRIDA y CAUPOLICAN,3373,-33.009792,-60.646793,OCHAVA NO
6963,N. LAGUNA y PJE. 1333,6963,-32.884887,-60.724299,OCHAVA NO
9926,CATAMARCA y RICCHERI,9926,-32.936125,-60.661221,OCHAVA NE
4042,LAPRIDA y SEGUI,4042,-32.979601,-60.642516,OCHAVA NO
4145,SALTA y ENTRE RIOS,4145,-32.93898,-60.639283,OCHAVA SO
3935,JOSE COLOMBRES y JUAN B. JUSTO,3935,-32.915298,-60.73055,OCHAVA NO
3954,ENTRE RIOS y R. ROSS,3954,-32.987653,-60.65157,OCHAVA NO
9286,PASCO y PJE. 1744,9286,-32.951252,-60.720915,OCHAVA SO
8372,R. RIVAROLA y CAMPODONICO,8372,-32.966152,-60.727135,OCHAVA NE
3806,AYACUCHO y ARIJON,3806,-33.002718,-60.635915,OCHAVA SE
7547,MORROW y CALLE 13116,7547,-32.873488,-60.735654,OCHAVA SE
4825,ITALIA y SAN LORENZO,4825,-32.94247,-60.647245,OCHAVA SE
3970,C. ALDAO y J. DE GARAY,3970,-32.965902,-60.694889,OCHAVA SE
9703,MERCANTE y TRIUNVIRATO,9703,-32.912114,-60.684348,OCHAVA NO
6754,ENTRE RIOS y PELLEGRINI,6754,-32.956507,-60.643692,OCHAVA NO
1180,VIRASORO y SARMIENTO,1180,-32.969955,-60.644175,OCHAVA SO
3391,NECOCHEA y COCHABAMBA,3391,-32.961019,-60.627109,OCHAVA SE
4158,TUCUMAN y SAN NICOLAS,4158,-32.935734,-60.67126,OCHAVA SO
7182,PARAGUAY y 3 DE FEBRERO,7182,-32.951692,-60.64538,OCHAVA NO
7177,MITRE y SAN JUAN,7177,-32.949957,-60.640446,OCHAVA SE
7876,SAN JUAN y TTE. AGNETA,7876,-32.940662,-60.699726,OCHAVA NE
3328,A. SABIN y ALMAFUERTE,3328,-32.917528,-60.689857,OCHAVA SE
1078,LAS PALMERAS y CALLE 1909,1078,-32.98811,-60.734347,OCHAVA O
8559,SANTIAGO y MENDOZA,8559,-32.948268,-60.657375,OCHAVA NO
5431,SAN MARTIN y PTE. QUINTANA,5431,-32.982747,-60.645182,OCHAVA NO
3985,MATHEU y POBLET,3985,-32.889053,-60.722448,OCHAVA SO
8165,PROVINCIAS UNIDAS y CASILDA,8165,-32.929262,-60.712962,OCHAVA SE
6336,CASILDA y DON BOSCO,6336,-32.928164,-60.680319,OCHAVA NE
8462,NTRA. SRA. ROSARIO y VERA MUJICA,8462,-33.000911,-60.679113,OCHAVA NE
9520,CERRITO y ESMERALDA,9520,-32.964913,-60.625434,OCHAVA SO
6943,MONGSFELD y AVELLANEDA,6943,-32.928848,-60.676363,OCHAVA NE
9483,C. ALDAO y BIELSA,9483,-32.923243,-60.696715,OCHAVA NO
9317,COCHABAMBA y MITRE,9317,-32.958125,-60.642449,OCHAVA NE
1369,LAPRIDA y SAN JUAN,1369,-32.950915,-60.634997,OCHAVA NO
8209,SAN MARTIN (VGG) y BELGRANO (VGG),8209,-33.02756,-60.621941,OCHAVA SE
1807,OROÑO y ANDRADE,1807,-32.996308,-60.665494,OCHAVA NO
6009,R. RIVAROLA y RICARDO LAGOS,6009,-32.965738,-60.715231,OCHAVA NE
1257,PELLEGRINI y VERA MUJICA,1257,-32.952007,-60.669481,OCHAVA NE
3669,OCAMPO y PROVINCIAS UNIDAS,3669,-32.958096,-60.712031,OCHAVA SO
2457,SOLIS y CASILDA,2457,-32.928957,-60.703772,OCHAVA SE
8822,NAVARRO y GONZALEZ DEL SOLAR,8822,-32.932055,-60.736631,OCHAVA NE
5147,RUEDA y MAIPU,5147,-32.971469,-60.641496,OCHAVA N
6638,EVA PERON (Baigorria) y MAIPO (Baigorria),6638,-32.858463257,-60.717098759,OCHAVA NE
4822,L. N. ALEM y RUEDA,4822,-32.972703,-60.634573,OCHAVA NO
5389,SAN MARTIN y URUGUAY,5389,-32.976944,-60.644432,OCHAVA NO
6480,SEGUI y BRUSELAS,6480,-32.97455,-60.670746,OCHAVA NE
5601,GABOTO y CHACABUCO,5601,-32.976016,-60.629463,OCHAVA NE
9255,L. N. ALEM y 27 DE FEBRERO,9255,-32.969193,-60.63367,OCHAVA NO
7060,VILLA DEL PARQUE y CALLE 1331,7060,-32.886363738,-60.728013257,OCHAVA SE
9394,AMENABAR y SARMIENTO,9394,-32.972253,-60.644752,OCHAVA SO
3565,BAIGORRIA y Z. PEREYRA,3565,-32.893702,-60.712673,OCHAVA NE
7277,GABOTO y ITALIA,7277,-32.971531,-60.654534,OCHAVA NE
5629,BUENOS AIRES y RUEDA,5629,-32.972109,-60.638813,OCHAVA SE
6663,SARRATEA y LA REPUBLICA,6663,-32.919451126,-60.741321095,OCHAVA SE
3668,OVIDIO LAGOS y DE LOS QUINTEROS,3668,-33.015776,-60.678508,OCHAVA SE
5186,OVIDIO LAGOS y MILAN,5186,-32.986559,-60.672014,OCHAVA SE
3310,SAN NICOLAS y SEGUI,3310,-32.973116,-60.680504,OCHAVA SE
7616,URQUIZA y MARCELO ALVEAR,7616,-32.939944,-60.653664,OCHAVA NE
6640,ARGERICH y J. J. PASO,6640,-32.919446,-60.68831,OCHAVA NO
6602,MENDOZA y S. BAYO,6602,-32.943293,-60.685967,OCHAVA SO
6742,SAN NICOLAS y CORDOBA,6742,-32.940399,-60.672242,OCHAVA SE
7108,FRANCIA y J. DE GARAY,7108,-32.969469,-60.67277,OCHAVA NO
7697,J. J. PASO y TTE. AGNETA,7697,-32.919944,-60.7007,OCHAVA SO
8858,BORDABEHERE y SUNCHALES,8858,-32.933447,-60.676882,OCHAVA NE
3698,GALVEZ y MORENO,3698,-32.966456,-60.656083,OCHAVA NE
1466,ENTRE RIOS y SAN JUAN,1466,-32.949477,-60.641937,OCHAVA NO
4014,SOLDADO AGUIRRE (VGG) y ROSARIO (VGG),4014,-33.029488,-60.642546,OCHAVA SO
6117,WILDE y TUCUMAN,6117,-32.933334,-60.73863,OCHAVA SE
2319,JOSE COLOMBRES y NAVARRO,2319,-32.931876,-60.729747,OCHAVA NO
8665,JOSE M. ROSA y BLOMBERG,8665,-32.891094,-60.718588,OCHAVA NE
2352,CEIBO y PTE. ROCA,2352,-33.013613,-60.655661,OCHAVA SO
5820,JUAN XXIII y MAGALLANES,5820,-32.973074,-60.703138,OCHAVA NE
4462,CANNING y JUNIN,4462,-32.926805,-60.674804,OCHAVA SE
9961,URIBURU y MARTIN RODRIGUEZ,9961,-32.991592,-60.671105,OCHAVA SO
8320,GUATEMALA y MENDOZA,8320,-32.940499,-60.717174,OCHAVA SE
9884,EVA PERON (Baigorria) y ESTANISLAO LOPEZ (Baigorria),9884,-32.858554135,-60.719773586,OCHAVA NE
2246,CAFFERATA y LA PAZ,2246,-32.958193,-60.675503,OCHAVA NO
2576,SUPERI y IGNACIO WARNES,2576,-32.894643,-60.69398,OCHAVA SO
7738,PARAGUAY y BATLLE Y ORDOÑEZ,7738,-33.009117226,-60.654363852,OCHAVA SE
3487,PROVINCIAS UNIDAS y MONTEVIDEO,3487,-32.947366,-60.71245,OCHAVA NO
6234,FRANCIA y CENTENO,6234,-32.979788,-60.675368,OCHAVA NO
5375,ESPAÑA y 27 DE FEBRERO,5375,-32.96594,-60.651881,OCHAVA NO
6710,OROÑO y AMENABAR,6710,-32.969373,-60.659956,OCHAVA NO
9733,SAN NICOLÁS (VGG) y G. GONZALEZ (VGG),9733,-33.032878,-60.639625,OCHAVA NO
2689,PJE. 1746 y PJE. 1741,2689,-32.95492,-60.724357,OCHAVA SE
5682,SEGUI y ENTRE RIOS,5682,-32.978711,-60.649304,OCHAVA SO
2225,S. DE BUSTAMANTE y BERMUDEZ,2225,-33.00169,-60.642479,OCHAVA NE
7065,M. FIERRO y J. AGUERO,7065,-32.877608,-60.695771,OCHAVA NE
6302,MENDOZA y FURLONG,6302,-32.940051,-60.735091,OCHAVA NE
9099,BALCARCE y CORDOBA,9099,-32.943864,-60.651998,OCHAVA NO
7925,VILLA DEL PARQUE y CONWAY,7925,-32.884415,-60.728068,OCHAVA SE
8764,LAS PALMERAS y PTE. PERON,8764,-32.980226,-60.736228,OCHAVA NO
9260,PELLEGRINI y FRAGA,9260,-32.948669,-60.709971,OCHAVA SO
3173,SAN MARTIN y KHANTUTA,3173,-33.011858,-60.651418,OCHAVA NO
5752,WHEELWRIGHT y MORENO,5752,-32.932877,-60.647843,OCHAVA SO
4377,WHITE y GSCHWIND,4377,-32.942128,-60.727806,OCHAVA SO
4041,ALVAREZ CONDARCO y E. ALIPPI,4041,-32.930717538,-60.75686277,OCHAVA SE
6580,AYACUCHO y 9 DE JULIO,6580,-32.955924,-60.628739,OCHAVA SE
4928,SAN MARTIN y S. DE BUSTAMANTE,4928,-33.002103,-60.649028,OCHAVA SE
5036,ALVAREZ THOMAS y MACIEL,5036,-32.90286,-60.684845,OCHAVA SE
8381,LAPRIDA y ITUZAINGO,8381,-32.961333,-60.637906,OCHAVA NO
1002,CAFFERATA y CORDOBA,1002,-32.939709,-60.670843,OCHAVA O
1822,27 DE FEBRERO y MARTIN RODRIGUEZ,1822,-32.963736,-60.663938,OCHAVA NE
7884,FRIULI y S. ALBARRACIN,7884,-32.929993,-60.73553,OCHAVA SE
2093,BAIGORRIA y BOEDO,2093,-32.893742,-60.706334,OCHAVA NE
9350,SAN MARTIN y B. JUAREZ,9350,-32.992792,-60.647308,OCHAVA NO
5956,PTE. ROCA y LA PAZ,5956,-32.963017,-60.649506,OCHAVA SE
2157,RUTA NAC. 9 (Funes) y ZAVALLA (Funes),2157,-32.925216,-60.765563,OCHAVA SO
1240,R. CASTRO y H. MANZI,1240,-32.887146,-60.716437,OCHAVA E
8993,AVELLANEDA y ALBERDI,8993,-32.927499,-60.676034,OCHAVA SE
2418,SOLIS y PJE. 1511,2418,-32.930624,-60.703911,OCHAVA NO
9988,LIMITE MUNICIPIO y C. SAAVEDRA,9988,-32.970536,-60.73373,OCHAVA SE
5553,G. BROWN y OVIDIO LAGOS,5553,-32.932997,-60.6592,OCHAVA SO
5221,NECOCHEA y GARIBALDI,5221,-32.988358,-60.634192,OCHAVA NO
4285,SAN JUAN y CONSTITUCION,4285,-32.943728,-60.674505,OCHAVA NE
8035,C. COLON y GALVEZ,8035,-32.970907,-60.631226,OCHAVA NO
4709,C. COLON y 3 DE FEBRERO,4709,-32.954812,-60.627217,OCHAVA NO
6289,SAN MARTIN y SEGUI,6289,-32.979257,-60.644457,OCHAVA NO
3878,FRANCIA y SEGUI,3878,-32.974353,-60.673616,OCHAVA SE
6138,AYACUCHO y HUNGRIA,6138,-33.010612,-60.635591,OCHAVA SE
7155,P. RIVERA y MOLINA,7155,-32.890147,-60.704865,OCHAVA NE
2247,BRASIL y CHUBUT,2247,-32.945912,-60.719232,OCHAVA SE
5430,SEGUI y SAN MARTIN,5430,-32.979566,-60.644516,OCHAVA SO
9442,H. PUJATO y JOSE M. ROSA,9442,-32.906138,-60.72586,OCHAVA SO
1503,PTE. PERON y D. CRESPO,1503,-32.956402,-60.672208,OCHAVA SO
6835,GABOTO y PTE. ROCA,6835,-32.972026,-60.651774,OCHAVA NE
4379,PELLEGRINI y SUIPACHA,4379,-32.952768,-60.667025,OCHAVA SO
6528,URIBURU y PRIMERO DE MAYO,6528,-32.990317,-60.640261,OCHAVA NE
5106,DR. F. RUIZ y CALLE 2106,5106,-33.014128,-60.687142,OCHAVA S
7044,JUAN B. JUSTO y SARRATEA,7044,-32.915743,-60.741693,OCHAVA SO
2032,CAFFERATA y J. DE GARAY,2032,-32.968507,-60.678123,OCHAVA NO
6148,SAN MARTIN y R. ROSS,6148,-32.988576,-60.646399,OCHAVA NO
4992,PRIMERO DE MAYO y 24 DE SETIEMBRE,4992,-32.981831,-60.638107,OCHAVA SE
6741,PTE. PERON y S. BAYO,6741,-32.958445,-60.689798,OCHAVA SO
8490,AMENABAR y PARAGUAY,8490,-32.971257,-60.650327,OCHAVA SO
1809,OLIVE y C. SILVA,1809,-32.912922,-60.679269,OCHAVA SO
2584,AYACUCHO y NTRA. SRA. ROSARIO,2584,-32.99938,-60.63651,OCHAVA NO
5413,SEGUI y LAPRIDA,5413,-32.97991,-60.64259,OCHAVA SO
2260,G. COLOMBRES y CALLE 1709,2260,-32.961072,-60.724862,OCHAVA SE
9900,GALVEZ y PUEYRREDON,9900,-32.96525,-60.662897,OCHAVA NE
4561,CATAMARCA y DORREGO,4561,-32.938573,-60.647681,OCHAVA NE
1747,MENDOZA y SOLIS,1747,-32.940139,-60.703444,OCHAVA SO
8245,CAFFERATA y URUGUAY,8245,-32.9708,-60.678706,OCHAVA NO
5932,TEMPORELLI (VGG) y RICHIERI (VGG),5932,-33.036635,-60.652807,OCHAVA NE
5807,ELORZA (Funes) y GRAL. PAZ (Funes),5807,-32.914259,-60.812937,OCHAVA SE
9183,JUAN A. MAZA y GALICIA,9183,-32.874528,-60.692557,OCHAVA NO
4080,CORRIENTES y MONTEVIDEO,4080,-32.955461,-60.644741,OCHAVA SE
5704,ITALIA y URUGUAY,5704,-32.975137,-60.655445,OCHAVA SE
4799,J D PERON (VGG) y CORRIENTES (VGG),4799,-33.009999,-60.614661,OCHAVA NO
3522,JORGE NEWBERY y M. GALVEZ,3522,-32.909135,-60.752716,OCHAVA S
9084,MAR DEL PLATA (Funes) y ACAPULCO (Funes),9084,-32.914478554,-60.864835728,OCHAVA E
3683,MORROW y CALLE 13120,3683,-32.874923,-60.735841,OCHAVA NO
8649,DORREGO y DEAN FUNES,8649,-32.973544,-60.656662,OCHAVA NO
8131,9 DE JULIO y JUAN M. DE ROSAS,8131,-32.955175,-60.633222,OCHAVA SO
3781,NALE ROXLO y S. DE THOMPSON,3781,-32.992301,-60.624949,OCHAVA NO
5739,PTE. PERON y ROUILLON,5739,-32.962633,-60.701213,OCHAVA NE
8567,SAN LORENZO y SANTIAGO,8567,-32.94101,-60.655543,OCHAVA SO
2207,PALLIERE y BERRINI,2207,-32.888516,-60.713975,OCHAVA SO
3394,AYACUCHO y DEAN FUNES,3394,-32.977738,-60.634161,OCHAVA SE
4593,RIOJA y CASTELLANOS,4593,-32.940898,-60.675211,OCHAVA NE
8193,AMENABAR y CORRIENTES,8193,-32.9715,-60.648956,OCHAVA SO
8327,CARLOS M. ALVEAR y SANTA FE,8327,-32.942219,-60.654239,OCHAVA SE
5863,J. J. PASO y DE ANGELIS,5863,-32.919745,-60.698796,OCHAVA NE
9781,JUJUY y PARAGUAY,9781,-32.937217,-60.641585,OCHAVA NE
9013,RUTA NAC. 9 (Funes) y LOS TIZONES (Funes),9013,-32.9156852,-60.848952344,OCHAVA SO
8691,PROVINCIAS UNIDAS y AMENABAR,8691,-32.96383,-60.711829,OCHAVA NO
9639,TEMPORELLI (VGG) y SAN LORENZO (VGG),9639,-33.036385,-60.644968,OCHAVA SO
8672,FRANCIA y 24 DE SETIEMBRE,8672,-32.975427,-60.673887,OCHAVA SE
1958,PELLEGRINI y MITRE,1958,-32.956886,-60.642167,OCHAVA NE
8224,PTE. QUINTANA y FRANCIA,8224,-32.97756,-60.674426,OCHAVA NE
3903,VIRASORO y VERA MUJICA,3903,-32.964815,-60.672918,OCHAVA SO
1803,EVA PERON y PERU,1803,-32.933313,-60.711858,OCHAVA SO
6597,MENDOZA (17 DE OCTUBRE) (VGG) y ROQUE S. PE?A (VGG),6597,-33.017495805,-60.609189737,OCHAVA NO
6882,DORREGO y ITUZAINGO,6882,-32.958645,-60.652897,OCHAVA NO
3359,ANT. C. A SOLDINI y OVIDIO LAGOS,3359,-33.025966,-60.681266,OCHAVA SO
8074,DORREGO y VIRASORO,8074,-32.967815,-60.655213,OCHAVA NO
2951,SEGUI y SANTIAGO,2951,-32.975742,-60.664103,OCHAVA NE
8970,BRIGADIER LOPEZ y OROÑO,8970,-32.930717,-60.649848,OCHAVA NE
7502,9 DE JULIO y PRIMERO DE MAYO,7502,-32.955432,-60.631679,OCHAVA SO
5308,CALDERON y C. ALBERINI,5308,-32.881002,-60.731235,OCHAVA SE
2359,C. COLON y VIAMONTE,2359,-32.967473,-60.630342,OCHAVA NO
1042,ALBERDI y CARBALLO,1042,-32.921965,-60.680229,OCHAVA N
8243,9 DE JULIO y BUENOS AIRES,8243,-32.954912,-60.634684,OCHAVA SO
1915,SAN MARTIN y DR. F. RIVA,1915,-32.983963,-60.645394,OCHAVA NO
6103,URQUIZA y IRIONDO,6103,-32.937287,-60.668462,OCHAVA NE
9274,GIACCONE y TREJO Y SANABRIA,9274,-33.008685,-60.672964,OCHAVA SO
9079,VIAMONTE y ECUADOR,9079,-32.956853,-60.714183,OCHAVA NE
2745,3 DE FEBRERO y SUCRE,2745,-32.943460757,-60.691534047,OCHAVA NE
6482,VILLA DEL PARQUE y C. ALBERINI,6482,-32.880724,-60.728473,OCHAVA NO
9418,GAMBARTES y KENNEDY,9418,-32.889489,-60.709849,OCHAVA NO
3729,GENOVA y D. CULLEN,3729,-32.915971,-60.70992,OCHAVA SO
9002,JUAN XXIII y C. ALDAO,9002,-32.973031,-60.694839,OCHAVA SO
6578,A. SABIN y GORRITI,6578,-32.923487,-60.684507,OCHAVA NO
2185,JUAN B. JUSTO y DONADO,2185,-32.915379,-60.728194,OCHAVA SO
3845,GABOTO y AYACUCHO,3845,-32.975285,-60.633542,OCHAVA NE
3199,MARTINEZ ESTRADA y SANCHEZ DE LORIA,3199,-32.911106,-60.732843,OCHAVA NE
8796,J. CURA y CARLOS M. ALVEAR,8796,-32.971104,-60.661684,OCHAVA SO
3412,27 DE FEBRERO y CONSTITUCION,3412,-32.961102,-60.678892,OCHAVA NE
7503,LAPRIDA y GARIBALDI,7503,-32.986558,-60.644279,OCHAVA NO
1091,S. ALLENDE y NANSEN,1091,-32.909205,-60.681721,OCHAVA SE
1741,J. M. GUTIERREZ y Ab. GRANDOLI,1741,-32.99331,-60.629142,OCHAVA N
9912,SAN JUAN y JUAN M. DE ROSAS,9912,-32.951456,-60.632116,OCHAVA NE
8142,ALVAREZ THOMAS y NUÑEZ,8142,-32.884492,-60.689437,OCHAVA SE
5078,SAN MARTIN y S. DE BUSTAMANTE,5078,-33.001895,-60.649266,OCHAVA NO
2889,Ab. GRANDOLI y RESISTENCIA,2889,-32.986216,-60.628125,OCHAVA SE
2354,SORRENTO y CASIANO CASAS,2354,-32.907142,-60.695643,OCHAVA NE
5697,J D PERON (VGG) y CORDOBA,5697,-33.01446,-60.615573,OCHAVA SE
8943,MENDOZA y BOLIVIA,8943,-32.940112,-60.71376,OCHAVA NE
5831,HUMBERTO PRIMERO y MAR DEL PLATA,5831,-32.929699,-60.681923,OCHAVA SO
5366,V. GOMEZ y H. GRANDE,5366,-32.883596,-60.699263,OCHAVA SE
9596,C. COLON y ITUZAINGO,9596,-32.962784,-60.629164,OCHAVA NO
7453,CALLE 1379 y SALVAT,7453,-32.883006,-60.717912,OCHAVA NO
3220,CALLE 2106 y CALLE 2127,3220,-33.016352,-60.687265,OCHAVA NO
8761,MENDOZA y SOLIS,8761,-32.939835,-60.703299,OCHAVA NE
8421,ITALIA y J. DE GARAY,8421,-32.972838,-60.654869,OCHAVA SE
9519,ECHEVERRIA y GORRITI,9519,-32.923341,-60.672097,OCHAVA SE
9980,MOLINA y LARRECHEA,9980,-32.8984,-60.704408,OCHAVA SE
6325,SEGUI y ESPINILLO,6325,-32.970512,-60.699066,OCHAVA NE
4677,MONTEVIDEO y PARAGUAY,4677,-32.955186,-60.646272,OCHAVA SO
2824,GAMBARTES y PALESTINA,2824,-32.886123,-60.711384,OCHAVA SE
2593,DONADO y S. DERQUI,2593,-32.93849,-60.72697,OCHAVA SE
8478,SANTA FE y ALSINA,8478,-32.938179,-60.675831,OCHAVA NE
9022,SALTA y PTE. ROCA,9022,-32.93822,-60.643597,OCHAVA SO
5206,SAN MARTIN (VGG) y CIRCUNVALACION (VGG),5206,-33.01593473,-60.634467748,OCHAVA SE
2460,URIZAR y MAGALDI,2460,-32.936298,-60.744232,OCHAVA O
7844,J. GRANEL y BOUCHARD,7844,-32.890263,-60.723813,OCHAVA SE
7592,FRANCIA y GARIBALDI,7592,-32.980935,-60.675657,OCHAVA NO
6084,C. COLON y ZEBALLOS,6084,-32.95729,-60.627777,OCHAVA NO
5349,PARAGUAY y SANTA FE,5349,-32.94399,-60.643446,OCHAVA NO
4889,VELEZ SARSFIELD y NICARAGUA,4889,-32.926153,-60.721262,OCHAVA NE
7008,WASHINGTON y V. GOMEZ,7008,-32.902276,-60.694876,OCHAVA SO
8451,EVA PERON y BARRA,8451,-32.934149,-60.707224,OCHAVA SO
1233,AVELLANEDA y MENDOZA,1233,-32.944098,-60.680571,OCHAVA NO
1537,FRANCIA y LA PAZ,1537,-32.959375,-60.66983,OCHAVA SE
8215,JOAQUIN SUAREZ y JOSE M. ROSA,8215,-32.89366,-60.721745,OCHAVA E
2003,E. DE LUCA y ENTRE RIOS,2003,-32.995102,-60.652222,OCHAVA SO
5510,ALVAREZ CONDARCO y J. INGENIEROS,5510,-32.918147,-60.755612,OCHAVA NO
2970,MATIENZO y RIOBAMBA,2970,-32.953954,-60.694257,OCHAVA NO
6430,A. SABIN y J. INGENIEROS,6430,-32.916479,-60.690396,OCHAVA SE
4819,SUIPACHA y URQUIZA,4819,-32.938202,-60.663355,OCHAVA NO
8304,ALVAREZ THOMAS y URIARTE,8304,-32.898068,-60.686293,OCHAVA SE
5805,Ab. GRANDOLI y RUFINO ORTEGA,5805,-32.981266,-60.627833,OCHAVA SE
8377,LAMADRID y MORENO,8377,-32.997408,-60.662113,OCHAVA NE
3881,C. ALDAO y C. SAAVEDRA,3881,-32.969397,-60.694754,OCHAVA SE
9894,ELORZA (Funes) y SANTA FE (Funes),9894,-32.917566,-60.814004,OCHAVA NO
5467,ARIJON y CALLAO,5467,-33.003592,-60.671218,OCHAVA NE
2366,3 DE FEBRERO y GUTENBERG,2366,-32.943947082,-60.688786663,OCHAVA NE
